$GNRMC,112629.00,A,3620.15404,N,12043.84149,E,0.026,,151024,,,D*64
$GNVTG,,T,,M,0.026,N,0.048,K,D*30
$GNGGA,112629.00,3620.15404,N,12043.84149,E,2,12,0.73,40.8,M,6.0,M,,0000*44
$GNGSA,A,3,27,16,08,04,09,26,07,18,,,,,1.38,0.73,1.17*18
$GNGSA,A,3,75,85,65,72,73,66,,,,,,,1.38,0.73,1.17*18
$GPGSV,4,1,14,04,45,240,41,07,18,312,36,08,53,215,33,09,36,283,41*7C
$GPGSV,4,2,14,16,57,037,26,18,12,046,36,21,02,181,28,26,31,071,19*79
$GPGSV,4,3,14,27,84,134,39,28,01,131,,31,32,125,,40,11,255,35*73
$GPGSV,4,4,14,41,32,233,,50,47,169,38*79
$GLGSV,3,1,12,65,26,285,35,66,10,332,24,72,17,224,39,73,13,091,22*6C
$GLGSV,3,2,12,74,46,056,13,75,45,330,40,76,00,291,,83,05,021,*66
$GLGSV,3,3,12,84,48,073,,85,38,153,42,,,,31,,,,34*60
$GNGLL,3620.15404,N,12043.84149,E,112629.00,A,D*7A
$GNRMC,112630.00,A,3620.15402,N,12043.84144,E,0.021,,151024,,,D*60
$GNVTG,,T,,M,0.021,N,0.039,K,D*31
$GNGGA,112630.00,3620.15402,N,12043.84144,E,2,12,0.73,40.9,M,6.0,M,,0000*46
$GNGSA,A,3,27,16,08,04,09,26,07,18,,,,,1.38,0.73,1.17*18
$GNGSA,A,3,75,85,65,72,73,66,,,,,,,1.38,0.73,1.17*18
$GPGSV,4,1,14,04,45,240,41,07,18,312,36,08,53,215,32,09,36,283,40*7C
$GPGSV,4,2,14,16,57,037,26,18,12,046,36,21,02,181,28,26,31,071,19*79
$GPGSV,4,3,14,27,84,134,40,28,01,131,,31,32,125,,40,11,255,35*7D
$GPGSV,4,4,14,41,32,233,,50,47,169,38*79
$GLGSV,3,1,12,65,26,285,35,66,10,332,23,72,17,224,39,73,13,091,23*6A
$GLGSV,3,2,12,74,46,056,12,75,45,330,38,76,00,291,,83,05,021,*68
$GLGSV,3,3,12,84,48,073,,85,38,153,40,,,,31,,,,33*65
$GNGLL,3620.15402,N,12043.84144,E,112630.00,A,D*79
$GNRMC,112631.00,A,3620.15404,N,12043.84147,E,0.044,,151024,,,D*67
$GNVTG,,T,,M,0.044,N,0.082,K,D*32
$GNGGA,112631.00,3620.15404,N,12043.84147,E,2,12,0.96,40.7,M,6.0,M,,0000*47
$GNGSA,A,3,27,16,08,04,09,26,07,18,,,,,1.77,0.96,1.49*13
$GNGSA,A,3,75,85,65,72,73,66,,,,,,,1.77,0.96,1.49*13
$GPGSV,4,1,14,04,45,240,40,07,18,312,36,08,53,215,32,09,36,283,40*7D
$GPGSV,4,2,14,16,57,037,25,18,12,046,36,21,02,181,29,26,31,071,18*7A
$GPGSV,4,3,14,27,84,134,40,28,01,131,,31,32,126,,40,11,255,35*7E
$GPGSV,4,4,14,41,32,233,,50,47,169,37*76
$GLGSV,3,1,12,65,26,285,35,66,10,332,22,72,17,224,39,73,13,091,23*6B
$GLGSV,3,2,12,74,46,056,09,75,45,330,39,76,00,291,,83,05,021,*63
$GLGSV,3,3,12,84,48,073,,85,38,153,41,,,,28,,,,34*6B
$GNGLL,3620.15404,N,12043.84147,E,112631.00,A,D*7D
$GNRMC,112632.00,A,3620.15402,N,12043.84145,E,0.015,,151024,,,D*64
$GNVTG,,T,,M,0.015,N,0.028,K,D*36
$GNGGA,112632.00,3620.15402,N,12043.84145,E,2,12,0.73,40.7,M,6.0,M,,0000*4B
$GNGSA,A,3,27,16,08,04,09,26,07,18,,,,,1.38,0.73,1.17*18
$GNGSA,A,3,75,85,65,72,73,66,,,,,,,1.38,0.73,1.17*18
$GPGSV,4,1,14,04,45,240,41,07,18,312,36,08,53,215,32,09,36,283,41*7D
$GPGSV,4,2,14,16,57,037,26,18,12,046,36,21,02,181,30,26,31,071,19*70
$GPGSV,4,3,14,27,84,134,40,28,01,131,,31,32,126,,40,11,255,34*7F
$GPGSV,4,4,14,41,32,233,,50,47,169,37*76
$GLGSV,3,1,12,65,26,285,35,66,10,332,22,72,17,224,39,73,13,091,23*6B
$GLGSV,3,2,12,74,46,056,10,75,45,330,39,76,00,291,,83,05,021,*6B
$GLGSV,3,3,12,84,48,073,,85,38,153,42,,,,29,,,,34*69
$GNGLL,3620.15402,N,12043.84145,E,112632.00,A,D*7A
$GNRMC,112633.00,A,3620.15399,N,12043.84138,E,0.048,,151024,,,D*62
$GNVTG,,T,,M,0.048,N,0.090,K,D*3D
$GNGGA,112633.00,3620.15399,N,12043.84138,E,2,12,0.73,40.8,M,6.0,M,,0000*4A
$GNGSA,A,3,27,16,08,04,09,26,07,18,,,,,1.38,0.73,1.17*18
$GNGSA,A,3,75,85,65,72,73,66,,,,,,,1.38,0.73,1.17*18
$GPGSV,4,1,14,04,45,240,41,07,18,312,36,08,53,215,33,09,36,283,41*7C
$GPGSV,4,2,14,16,57,037,26,18,12,046,36,21,02,181,30,26,31,071,19*70
$GPGSV,4,3,14,27,84,134,40,28,01,131,,31,32,126,22,40,11,255,34*7F
$GPGSV,4,4,14,41,32,233,,50,47,169,37*76
$GLGSV,3,1,12,65,26,285,35,66,10,332,21,72,17,224,39,73,13,091,23*68
$GLGSV,3,2,12,74,46,056,14,75,45,330,40,76,00,291,,83,05,021,*61
$GLGSV,3,3,12,84,48,073,,85,38,153,42,,,,29,,,,35*68
$GNGLL,3620.15399,N,12043.84138,E,112633.00,A,D*74
$GNRMC,112634.00,A,3620.15401,N,12043.84142,E,0.027,,151024,,,D*67
$GNVTG,,T,,M,0.027,N,0.049,K,D*30
$GNGGA,112634.00,3620.15401,N,12043.84142,E,2,12,0.96,40.7,M,6.0,M,,0000*42
$GNGSA,A,3,27,16,08,04,09,26,07,18,,,,,1.77,0.96,1.49*13
$GNGSA,A,3,75,85,65,72,73,66,,,,,,,1.77,0.96,1.49*13
$GPGSV,4,1,14,04,45,240,41,07,18,312,36,08,53,215,34,09,36,283,40*7A
$GPGSV,4,2,14,16,57,037,26,18,12,046,36,21,02,181,30,26,31,071,20*7A
$GPGSV,4,3,14,27,84,134,40,28,01,131,,31,32,126,23,40,11,255,34*7E
$GPGSV,4,4,14,41,32,233,,50,47,169,37*76
$GLGSV,3,1,12,65,26,285,35,66,10,332,22,72,17,224,39,73,13,091,24*6C
$GLGSV,3,2,12,74,46,056,16,75,45,330,39,76,00,291,,83,05,021,*6D
$GLGSV,3,3,12,84,48,073,,85,38,153,41,,,,33,,,,35*60
$GNGLL,3620.15401,N,12043.84142,E,112634.00,A,D*78
$GNRMC,112635.00,A,3620.15399,N,12043.84142,E,0.022,,151024,,,D*65
$GNVTG,,T,,M,0.022,N,0.041,K,D*3D
$GNGGA,112635.00,3620.15399,N,12043.84142,E,2,12,0.70,40.7,M,6.0,M,,0000*4D
$GNGSA,A,3,27,16,08,04,09,31,26,07,18,,,,1.36,0.70,1.17*17
$GNGSA,A,3,75,85,65,72,73,66,,,,,,,1.36,0.70,1.17*15
$GPGSV,4,1,14,04,45,240,41,07,18,312,36,08,53,215,35,09,36,283,40*7B
$GPGSV,4,2,14,16,57,037,25,18,12,046,36,21,02,181,30,26,31,071,20*79
$GPGSV,4,3,14,27,84,134,40,28,01,131,,31,32,126,23,40,11,255,35*7F
$GPGSV,4,4,14,41,32,233,,50,47,169,37*76
$GLGSV,3,1,12,65,26,285,35,66,10,332,21,72,17,224,38,73,13,091,23*69
$GLGSV,3,2,12,74,46,056,,75,45,330,39,76,00,291,,83,05,021,*6A
$GLGSV,3,3,12,84,48,073,,85,38,153,41,,,,34,,,,34*66
$GNGLL,3620.15399,N,12043.84142,E,112635.00,A,D*7F
$GNRMC,112636.00,A,3620.15396,N,12043.84136,E,0.047,,151024,,,D*69
$GNVTG,,T,,M,0.047,N,0.088,K,D*3B
$GNGGA,112636.00,3620.15396,N,12043.84136,E,2,12,0.70,40.8,M,6.0,M,,0000*4D
$GNGSA,A,3,27,16,08,04,09,31,26,07,18,,,,1.36,0.70,1.17*17
$GNGSA,A,3,75,85,65,72,73,66,,,,,,,1.36,0.70,1.17*15
$GPGSV,4,1,14,04,45,240,41,07,18,312,36,08,53,215,35,09,36,283,40*7B
$GPGSV,4,2,14,16,57,037,25,18,12,046,35,21,02,181,30,26,31,071,20*7A
$GPGSV,4,3,14,27,84,134,40,28,01,131,,31,32,126,23,40,11,255,35*7F
$GPGSV,4,4,14,41,32,233,,50,47,169,37*76
$GLGSV,3,1,12,65,26,285,35,66,10,332,21,72,17,224,38,73,13,091,23*69
$GLGSV,3,2,12,74,46,056,,75,45,330,39,76,00,291,,83,05,021,*6A
$GLGSV,3,3,12,84,48,073,,85,38,153,42,,,,33,,,,35*63
$GNGLL,3620.15396,N,12043.84136,E,112636.00,A,D*70
$GNRMC,112637.00,A,3620.15398,N,12043.84141,E,0.023,,151024,,,D*64
$GNVTG,,T,,M,0.023,N,0.043,K,D*3E
$GNGGA,112637.00,3620.15398,N,12043.84141,E,2,12,0.89,40.6,M,6.0,M,,0000*4A
$GNGSA,A,3,27,16,08,04,09,31,26,07,18,,,,1.69,0.89,1.44*1D
$GNGSA,A,3,75,85,65,72,73,66,,,,,,,1.69,0.89,1.44*1F
$GPGSV,4,1,14,04,45,240,41,07,18,312,36,08,53,215,34,09,36,283,40*7A
$GPGSV,4,2,14,16,57,037,25,18,12,046,35,21,02,181,30,26,31,071,19*70
$GPGSV,4,3,14,27,84,134,40,28,01,131,,31,32,126,22,40,11,255,35*7E
$GPGSV,4,4,14,41,32,233,,50,47,169,37*76
$GLGSV,3,1,12,65,26,285,33,66,10,332,23,72,17,224,37,73,13,091,21*60
$GLGSV,3,2,12,74,46,056,,75,45,330,41,76,00,291,,83,05,021,*65
$GLGSV,3,3,12,84,48,073,,85,38,153,41,,,,23,,,,34*60
$GNGLL,3620.15398,N,12043.84141,E,112637.00,A,D*7F
$GNRMC,112638.00,A,3620.15395,N,12043.84141,E,0.044,,151024,,,D*67
$GNVTG,,T,,M,0.044,N,0.081,K,D*31
$GNGGA,112638.00,3620.15395,N,12043.84141,E,2,12,0.70,40.6,M,6.0,M,,0000*4E
$GNGSA,A,3,27,16,08,04,09,31,26,07,18,,,,1.36,0.70,1.17*17
$GNGSA,A,3,75,85,65,72,73,66,,,,,,,1.36,0.70,1.17*15
$GPGSV,4,1,14,04,45,240,41,07,18,312,35,08,53,215,35,09,36,283,40*78
$GPGSV,4,2,14,16,57,037,25,18,12,046,37,21,02,181,30,26,31,071,17*7C
$GPGSV,4,3,14,27,84,134,40,28,01,131,,31,32,126,21,40,11,255,35*7D
$GPGSV,4,4,14,41,32,233,,50,47,169,37*76
$GLGSV,3,1,12,65,26,285,33,66,10,332,24,72,17,224,38,73,13,091,20*69
$GLGSV,3,2,12,74,46,056,,75,45,330,41,76,00,291,,83,05,021,*65
$GLGSV,3,3,12,84,48,073,,85,38,153,43,,,,30,,,,32*66
$GNGLL,3620.15395,N,12043.84141,E,112638.00,A,D*7D
$GNRMC,112639.00,A,3620.15391,N,12043.84134,E,0.111,,151024,,,D*61
$GNVTG,,T,,M,0.111,N,0.206,K,D*3D
$GNGGA,112639.00,3620.15391,N,12043.84134,E,2,12,0.70,40.7,M,6.0,M,,0000*48
$GNGSA,A,3,27,16,08,04,09,31,26,07,18,,,,1.36,0.70,1.17*17
$GNGSA,A,3,75,85,65,72,73,66,,,,,,,1.36,0.70,1.17*15
$GPGSV,4,1,14,04,45,240,41,07,18,312,36,08,53,215,36,09,36,283,40*78
$GPGSV,4,2,14,16,57,037,23,18,12,046,37,21,02,181,31,26,31,071,15*79
$GPGSV,4,3,14,27,84,134,40,28,01,131,,31,32,126,21,40,11,255,37*7F
$GPGSV,4,4,14,41,32,233,,50,47,169,37*76
$GLGSV,3,1,12,65,26,285,36,66,10,332,22,72,17,224,37,73,13,091,17*61
$GLGSV,3,2,12,74,46,056,,75,45,330,38,76,00,291,,83,05,021,*6B
$GLGSV,3,3,12,84,48,073,,85,38,153,41,,,,27,,,,29*68
$GNGLL,3620.15391,N,12043.84134,E,112639.00,A,D*7A
$GNRMC,112640.00,A,3620.15393,N,12043.84140,E,0.020,,151024,,,D*6D
$GNVTG,,T,,M,0.020,N,0.038,K,D*31
$GNGGA,112640.00,3620.15393,N,12043.84140,E,2,12,0.89,40.5,M,6.0,M,,0000*43
$GNGSA,A,3,27,16,08,04,09,31,26,07,18,,,,1.69,0.89,1.44*1D
$GNGSA,A,3,75,85,65,72,73,,,,,,,,1.69,0.89,1.44*1F
$GPGSV,4,1,14,04,45,240,41,07,18,312,36,08,53,215,36,09,36,283,40*78
$GPGSV,4,2,14,16,57,037,20,18,12,046,37,21,02,181,31,26,31,071,18*77
$GPGSV,4,3,14,27,84,134,41,28,01,131,,31,32,126,20,40,11,255,38*70
$GPGSV,4,4,14,41,32,233,,50,47,169,37*76
$GLGSV,3,1,12,65,26,285,36,66,10,332,22,72,17,224,36,73,13,091,17*60
$GLGSV,3,2,12,74,46,056,,75,45,330,40,76,00,291,,83,05,021,*64
$GLGSV,3,3,12,84,48,073,,85,38,153,41,,,,29,,,,28*67
$GNGLL,3620.15393,N,12043.84140,E,112640.00,A,D*75
$GNRMC,112641.00,A,3620.15391,N,12043.84141,E,0.021,,151024,,,D*6E
$GNVTG,,T,,M,0.021,N,0.038,K,D*30
$GNGGA,112641.00,3620.15391,N,12043.84141,E,2,12,0.70,40.5,M,6.0,M,,0000*47
$GNGSA,A,3,27,16,08,04,09,31,26,07,18,,,,1.36,0.70,1.17*17
$GNGSA,A,3,75,85,65,72,73,,,,,,,,1.36,0.70,1.17*15
$GPGSV,4,1,14,04,45,240,41,07,18,312,35,08,53,215,35,09,36,283,40*78
$GPGSV,4,2,14,16,57,037,18,18,12,046,37,21,02,181,30,26,31,071,19*7C
$GPGSV,4,3,14,27,84,134,41,28,01,131,,31,32,126,20,40,11,255,37*7F
$GPGSV,4,4,14,41,32,233,,50,47,169,37*76
$GLGSV,3,1,12,65,26,285,35,66,10,332,18,72,17,224,36,73,13,091,14*69
$GLGSV,3,2,12,74,46,056,,75,45,330,38,76,00,291,,83,05,021,*6B
$GLGSV,3,3,12,84,48,073,,85,38,153,41,,,,30,,,,30*66
$GNGLL,3620.15391,N,12043.84141,E,112641.00,A,D*77
$GNRMC,112642.00,A,3620.15388,N,12043.84137,E,0.010,,151024,,,D*66
$GNVTG,,T,,M,0.010,N,0.018,K,D*30
$GNGGA,112642.00,3620.15388,N,12043.84137,E,2,12,0.70,40.5,M,6.0,M,,0000*4D
$GNGSA,A,3,27,16,08,04,09,31,26,07,18,,,,1.36,0.70,1.17*17
$GNGSA,A,3,75,85,65,72,73,66,,,,,,,1.36,0.70,1.17*15
$GPGSV,4,1,14,04,45,240,40,07,18,312,35,08,53,215,36,09,36,283,40*7A
$GPGSV,4,2,14,16,57,037,20,18,12,046,37,21,02,181,30,26,31,071,18*76
$GPGSV,4,3,14,27,84,134,41,28,01,131,,31,32,126,19,40,11,255,35*77
$GPGSV,4,4,14,41,32,233,,50,47,169,38*79
$GLGSV,3,1,12,65,26,285,35,66,10,332,20,72,17,224,38,73,13,091,12*6A
$GLGSV,3,2,12,74,46,056,,75,45,330,38,76,00,291,,83,05,021,*6B
$GLGSV,3,3,12,84,48,073,,85,38,153,42,,,,28,,,,31*6D
$GNGLL,3620.15388,N,12043.84137,E,112642.00,A,D*7D
$GNRMC,112643.00,A,3620.15390,N,12043.84142,E,0.040,,151024,,,D*69
$GNVTG,,T,,M,0.040,N,0.074,K,D*3F
$GNGGA,112643.00,3620.15390,N,12043.84142,E,2,12,0.96,40.3,M,6.0,M,,0000*49
$GNGSA,A,3,27,16,08,04,09,26,07,18,,,,,1.77,0.96,1.49*13
$GNGSA,A,3,75,85,65,72,73,66,,,,,,,1.77,0.96,1.49*13
$GPGSV,4,1,14,04,45,240,41,07,18,312,34,08,53,215,36,09,36,283,40*7A
$GPGSV,4,2,14,16,57,037,21,18,12,046,37,21,02,181,31,26,31,071,19*77
$GPGSV,4,3,14,27,84,134,41,28,01,131,,31,32,126,,40,11,255,31*7B
$GPGSV,4,4,14,41,32,233,,50,47,169,38*79
$GLGSV,3,1,12,65,26,285,35,66,10,332,18,72,17,224,35,73,13,091,11*6F
$GLGSV,3,2,12,74,46,056,,75,45,330,37,76,00,291,,83,05,021,*64
$GLGSV,3,3,12,84,48,073,,85,38,153,41,,,,27,,,,31*61
$GNGLL,3620.15390,N,12043.84142,E,112643.00,A,D*77
$GNRMC,112644.00,A,3620.15388,N,12043.84138,E,0.029,,151024,,,D*65
$GNVTG,,T,,M,0.029,N,0.053,K,D*35
$GNGGA,112644.00,3620.15388,N,12043.84138,E,2,12,0.73,40.3,M,6.0,M,,0000*41
$GNGSA,A,3,27,16,08,04,09,26,07,18,,,,,1.38,0.73,1.17*18
$GNGSA,A,3,75,85,65,72,73,66,,,,,,,1.38,0.73,1.17*18
$GPGSV,4,1,14,04,45,240,42,07,18,312,32,08,53,215,35,09,36,283,41*7D
$GPGSV,4,2,14,16,57,037,20,18,12,046,37,21,02,181,30,26,31,071,18*76
$GPGSV,4,3,14,27,84,134,40,28,01,131,,31,32,126,,40,11,255,34*7F
$GPGSV,4,4,14,41,32,233,,50,47,169,38*79
$GLGSV,3,1,12,65,26,285,35,66,10,332,17,72,17,224,39,73,13,091,13*6E
$GLGSV,3,2,12,74,46,056,,75,45,330,39,76,00,291,,83,05,021,*6A
$GLGSV,3,3,12,84,48,073,,85,38,153,42,,,,28,,,,30*6C
$GNGLL,3620.15388,N,12043.84138,E,112644.00,A,D*74
$GNRMC,112645.00,A,3620.15384,N,12043.84132,E,0.088,,151024,,,D*69
$GNVTG,,T,,M,0.088,N,0.163,K,D*3C
$GNGGA,112645.00,3620.15384,N,12043.84132,E,2,12,0.73,40.4,M,6.0,M,,0000*41
$GNGSA,A,3,27,16,08,04,09,26,07,18,,,,,1.38,0.73,1.17*18
$GNGSA,A,3,75,85,65,72,73,66,,,,,,,1.38,0.73,1.17*18
$GPGSV,4,1,14,04,45,240,42,07,18,312,29,08,53,215,41,09,36,283,38*7A
$GPGSV,4,2,14,16,57,037,20,18,12,046,40,21,02,181,23,26,31,071,19*75
$GPGSV,4,3,14,27,84,134,37,28,01,131,,31,32,126,,40,11,255,37*7C
$GPGSV,4,4,14,41,32,233,,50,47,169,36*77
$GLGSV,3,1,12,65,26,285,34,66,10,332,19,72,17,224,36,73,13,091,19*64
$GLGSV,3,2,12,74,46,056,,75,45,330,34,76,00,291,,83,05,021,*67
$GLGSV,3,3,12,84,48,073,,85,38,153,38,,,,28,,,,24*64
$GNGLL,3620.15384,N,12043.84132,E,112645.00,A,D*73
$GNRMC,112646.00,A,3620.15390,N,12043.84134,E,0.226,,151024,,,D*6F
$GNVTG,,T,,M,0.226,N,0.418,K,D*33
$GNGGA,112646.00,3620.15390,N,12043.84134,E,2,12,1.07,40.1,M,6.0,M,,0000*46
$GNGSA,A,3,27,16,08,04,09,31,26,07,18,,,,2.07,1.07,1.77*11
$GNGSA,A,3,75,85,65,72,73,66,,,,,,,2.07,1.07,1.77*13
$GPGSV,4,1,14,04,45,240,38,07,18,312,22,08,53,215,41,09,36,283,40*73
$GPGSV,4,2,14,16,57,037,21,18,12,046,37,21,02,181,22,26,31,071,17*7B
$GPGSV,4,3,14,27,84,134,37,28,01,131,,31,32,126,29,40,11,255,34*74
$GPGSV,4,4,14,41,32,233,,50,47,169,38*79
$GLGSV,3,1,12,65,26,285,30,66,10,332,19,72,17,224,32,73,13,091,22*6C
$GLGSV,3,2,12,74,46,056,,75,45,330,37,76,00,291,,83,05,021,*64
$GLGSV,3,3,12,84,48,073,,85,38,153,33,,,,34,,,,32*65
$GNGLL,3620.15390,N,12043.84134,E,112646.00,A,D*73
$GNRMC,112647.00,A,3620.15384,N,12043.84108,E,1.026,246.65,151024,,,D*7A
$GNVTG,246.65,T,,M,1.026,N,1.900,K,D*28
$GNGGA,112647.00,3620.15384,N,12043.84108,E,2,12,0.70,39.8,M,6.0,M,,0000*4B
$GNGSA,A,3,27,16,08,04,09,31,26,07,18,,,,1.36,0.70,1.17*17
$GNGSA,A,3,75,85,65,72,73,66,,,,,,,1.36,0.70,1.17*15
$GPGSV,4,1,14,04,45,240,38,07,18,312,25,08,53,215,36,09,36,283,38*7B
$GPGSV,4,2,14,16,57,037,22,18,12,046,39,21,02,181,29,26,31,071,16*7C
$GPGSV,4,3,14,27,84,134,39,28,01,131,,31,32,126,24,40,11,255,32*71
$GPGSV,4,4,14,41,32,233,,50,47,169,36*77
$GLGSV,3,1,12,65,26,285,30,66,10,332,19,72,17,224,37,73,13,091,23*68
$GLGSV,3,2,12,74,46,056,,75,45,330,39,76,00,291,,83,05,021,*6A
$GLGSV,3,3,12,84,48,073,,85,38,153,36,,,,37,,,,30*61
$GNGLL,3620.15384,N,12043.84108,E,112647.00,A,D*78
$GNRMC,112648.00,A,3620.15366,N,12043.84075,E,1.040,238.33,151024,,,D*78
$GNVTG,238.33,T,,M,1.040,N,1.926,K,D*26
$GNGGA,112648.00,3620.15366,N,12043.84075,E,2,12,0.70,39.6,M,6.0,M,,0000*4D
$GNGSA,A,3,27,16,08,04,09,31,26,07,18,,,,1.36,0.70,1.17*17
$GNGSA,A,3,75,85,65,72,73,66,,,,,,,1.36,0.70,1.17*15
$GPGSV,4,1,14,04,45,240,34,07,18,312,26,08,53,215,36,09,36,283,39*75
$GPGSV,4,2,14,16,57,037,21,18,12,046,39,21,02,181,22,26,31,071,15*77
$GPGSV,4,3,14,27,84,134,37,28,01,131,,31,32,126,31,40,11,255,35*7C
$GPGSV,4,4,14,41,32,233,,50,47,169,36*77
$GLGSV,3,1,12,65,26,285,32,66,10,332,21,72,17,224,36,73,13,091,23*60
$GLGSV,3,2,12,74,46,056,,75,45,330,34,76,00,291,,83,05,021,*67
$GLGSV,3,3,12,84,48,073,,85,38,153,41,,,,36,,,,34*64
$GNGLL,3620.15366,N,12043.84075,E,112648.00,A,D*70
$GNRMC,112649.00,A,3620.15359,N,12043.84061,E,0.649,238.21,151024,,,D*7D
$GNVTG,238.21,T,,M,0.649,N,1.203,K,D*27
$GNGGA,112649.00,3620.15359,N,12043.84061,E,2,12,0.89,39.3,M,6.0,M,,0000*46
$GNGSA,A,3,27,16,08,04,09,31,26,07,18,,,,1.69,0.89,1.44*1D
$GNGSA,A,3,75,85,65,72,73,66,,,,,,,1.69,0.89,1.44*1F
$GPGSV,4,1,14,04,45,240,35,07,18,312,26,08,53,215,37,09,36,283,38*74
$GPGSV,4,2,14,16,57,037,22,18,12,046,41,21,02,181,24,26,31,071,15*7D
$GPGSV,4,3,14,27,84,134,41,28,01,131,,31,32,126,34,40,11,255,33*7E
$GPGSV,4,4,14,41,32,233,,50,47,169,38*79
$GLGSV,3,1,12,65,26,285,35,66,10,332,22,72,17,224,38,73,13,091,22*6B
$GLGSV,3,2,12,74,46,056,,75,45,330,35,76,00,291,,83,05,021,*66
$GLGSV,3,3,12,84,48,073,,85,38,153,39,,,,34,,,,36*6B
$GNGLL,3620.15359,N,12043.84061,E,112649.00,A,D*78
$GNRMC,112650.00,A,3620.15344,N,12043.84034,E,0.953,232.57,151024,,,D*76
$GNVTG,232.57,T,,M,0.953,N,1.764,K,D*2C
$GNGGA,112650.00,3620.15344,N,12043.84034,E,2,12,0.70,39.2,M,6.0,M,,0000*45
$GNGSA,A,3,27,16,08,04,09,31,26,07,18,,,,1.36,0.70,1.17*17
$GNGSA,A,3,75,85,65,72,73,66,,,,,,,1.36,0.70,1.17*15
$GPGSV,4,1,14,04,45,240,33,07,18,312,25,08,53,215,35,09,36,283,41*7D
$GPGSV,4,2,14,16,57,037,22,18,12,046,39,21,02,181,25,26,31,071,16*70
$GPGSV,4,3,14,27,84,134,37,28,01,131,,31,32,126,29,40,11,255,36*76
$GPGSV,4,4,14,41,32,233,,50,47,169,39*78
$GLGSV,3,1,12,65,26,285,37,66,10,332,22,72,17,224,34,73,13,091,22*65
$GLGSV,3,2,12,74,46,056,,75,45,330,43,76,00,291,,83,05,021,*67
$GLGSV,3,3,12,84,48,073,,85,38,153,37,,,,29,,,,35*6A
$GNGLL,3620.15344,N,12043.84034,E,112650.00,A,D*7C
$GNRMC,112651.00,A,3620.15317,N,12043.83991,E,1.374,231.29,151024,,,D*74
$GNVTG,231.29,T,,M,1.374,N,2.545,K,D*2A
$GNGGA,112651.00,3620.15317,N,12043.83991,E,2,12,0.73,39.3,M,6.0,M,,0000*41
$GNGSA,A,3,27,16,08,04,09,26,07,18,,,,,1.38,0.73,1.17*18
$GNGSA,A,3,75,85,65,72,73,66,,,,,,,1.38,0.73,1.17*18
$GPGSV,4,1,14,04,45,240,25,07,18,312,25,08,53,215,38,09,36,283,41*77
$GPGSV,4,2,14,16,57,037,24,18,12,046,37,21,02,181,25,26,31,071,17*79
$GPGSV,4,3,14,27,84,134,39,28,01,131,,31,32,126,29,40,11,255,33*7D
$GPGSV,4,4,14,41,32,233,,50,47,169,35*74
$GLGSV,3,1,12,65,26,285,31,66,10,332,23,72,17,224,30,73,13,091,23*67
$GLGSV,3,2,12,74,46,056,,75,45,330,39,76,00,291,,83,05,021,*6A
$GLGSV,3,3,12,84,48,073,,85,38,153,36,,,,35,,,,35*66
$GNGLL,3620.15317,N,12043.83991,E,112651.00,A,D*7A
$GNRMC,112652.00,A,3620.15307,N,12043.83980,E,0.351,,151024,,,D*65
$GNVTG,,T,,M,0.351,N,0.651,K,D*3D
$GNGGA,112652.00,3620.15307,N,12043.83980,E,2,12,0.75,39.6,M,6.0,M,,0000*40
$GNGSA,A,3,27,16,08,04,09,31,26,07,18,,,,1.55,0.75,1.35*17
$GNGSA,A,3,75,85,65,72,73,66,,,,,,,1.55,0.75,1.35*15
$GPGSV,4,1,14,04,45,240,36,07,18,312,24,08,53,215,39,09,36,283,40*74
$GPGSV,4,2,14,16,57,037,24,18,12,046,37,21,02,181,27,26,31,071,17*7B
$GPGSV,4,3,14,27,84,134,39,28,01,131,,31,32,126,29,40,11,255,36*78
$GPGSV,4,4,14,41,32,233,,50,47,169,39*78
$GLGSV,3,1,12,65,26,285,31,66,10,332,23,72,17,224,37,73,13,091,24*67
$GLGSV,3,2,12,74,46,056,,75,45,330,39,76,00,291,,83,05,021,*6A
$GLGSV,3,3,12,84,48,073,,85,38,153,41,,,,38,,,,36*68
$GNGLL,3620.15307,N,12043.83980,E,112652.00,A,D*78
$GNRMC,112653.00,A,3620.15289,N,12043.83955,E,0.942,230.13,151024,,,D*7E
$GNVTG,230.13,T,,M,0.942,N,1.744,K,D*2C
$GNGGA,112653.00,3620.15289,N,12043.83955,E,2,12,0.65,39.6,M,6.0,M,,0000*4F
$GNGSA,A,3,27,16,08,04,09,31,26,07,18,,,,1.33,0.65,1.16*17
$GNGSA,A,3,75,85,65,72,73,66,,,,,,,1.33,0.65,1.16*15
$GPGSV,4,1,14,04,45,240,29,07,18,312,27,08,53,215,38,09,36,283,38*77
$GPGSV,4,2,14,16,57,037,28,18,12,046,35,21,02,181,28,26,31,071,21*7F
$GPGSV,4,3,14,27,84,134,36,28,01,131,,31,32,126,26,40,11,255,36*78
$GPGSV,4,4,14,41,32,233,,50,47,169,36*77
$GLGSV,3,1,12,65,26,284,37,66,10,332,24,72,17,224,33,73,13,091,26*61
$GLGSV,3,2,12,74,46,056,,75,45,330,40,76,00,291,,83,05,021,*64
$GLGSV,3,3,12,84,48,073,,85,38,153,39,,,,36,,,,31*6E
$GNGLL,3620.15289,N,12043.83955,E,112653.00,A,D*76
$GNRMC,112654.00,A,3620.15272,N,12043.83945,E,0.673,,151024,,,D*6C
$GNVTG,,T,,M,0.673,N,1.247,K,D*3A
$GNGGA,112654.00,3620.15272,N,12043.83945,E,2,12,0.70,39.6,M,6.0,M,,0000*49
$GNGSA,A,3,27,16,08,04,09,31,07,18,,,,,1.36,0.70,1.17*13
$GNGSA,A,3,75,85,65,72,73,66,,,,,,,1.36,0.70,1.17*15
$GPGSV,4,1,14,04,45,240,34,07,18,312,27,08,53,215,31,09,36,283,38*72
$GPGSV,4,2,14,16,57,037,34,18,12,046,38,21,02,181,28,26,31,071,*7C
$GPGSV,4,3,14,27,84,134,40,28,01,131,,31,32,126,26,40,11,255,39*76
$GPGSV,4,4,14,41,32,233,,50,47,169,35*74
$GLGSV,3,1,12,65,26,284,33,66,10,332,25,72,17,224,39,73,13,091,27*6F
$GLGSV,3,2,12,74,46,056,,75,45,330,46,76,00,291,,83,05,021,*62
$GLGSV,3,3,12,84,48,073,,85,38,153,35,,,,43,,,,33*62
$GNGLL,3620.15272,N,12043.83945,E,112654.00,A,D*74
$GNRMC,112655.00,A,3620.15256,N,12043.83955,E,0.736,188.84,151024,,,D*79
$GNVTG,188.84,T,,M,0.736,N,1.364,K,D*29
$GNGGA,112655.00,3620.15256,N,12043.83955,E,2,12,0.70,40.0,M,6.0,M,,0000*47
$GNGSA,A,3,27,16,08,04,09,31,07,18,,,,,1.36,0.70,1.17*13
$GNGSA,A,3,75,85,65,72,73,66,,,,,,,1.36,0.70,1.17*15
$GPGSV,4,1,14,04,45,240,33,07,18,312,28,08,53,215,35,09,36,283,35*73
$GPGSV,4,2,14,16,57,037,42,18,12,046,34,21,02,181,30,26,31,071,22*78
$GPGSV,4,3,14,27,84,134,40,28,01,131,,31,32,126,32,40,11,255,41*7C
$GPGSV,4,4,14,41,32,233,,50,47,169,36*77
$GLGSV,3,1,12,65,26,284,32,66,10,332,25,72,17,224,42,73,13,091,27*62
$GLGSV,3,2,12,74,46,056,,75,45,330,41,76,00,291,,83,05,021,*65
$GLGSV,3,3,12,84,48,073,,85,38,153,41,,,,45,,,,38*6C
$GNGLL,3620.15256,N,12043.83955,E,112655.00,A,D*72
$GNRMC,112656.00,A,3620.15239,N,12043.83950,E,0.598,,151024,,,D*63
$GNVTG,,T,,M,0.598,N,1.108,K,D*34
$GNGGA,112656.00,3620.15239,N,12043.83950,E,2,12,0.70,40.2,M,6.0,M,,0000*4A
$GNGSA,A,3,27,16,08,04,09,31,07,18,,,,,1.36,0.70,1.17*13
$GNGSA,A,3,75,85,65,72,73,66,,,,,,,1.36,0.70,1.17*15
$GPGSV,4,1,14,04,45,240,31,07,18,312,33,08,53,215,35,09,36,283,38*76
$GPGSV,4,2,14,16,57,037,42,18,12,046,30,21,02,181,30,26,31,071,21*7F
$GPGSV,4,3,14,27,84,134,40,28,01,131,,31,32,126,25,40,11,255,39*75
$GPGSV,4,4,14,41,32,233,,50,47,169,36*77
$GLGSV,3,1,12,65,26,284,32,66,10,332,26,72,17,224,41,73,13,091,28*6D
$GLGSV,3,2,12,74,46,056,,75,45,330,41,76,00,291,,83,05,021,*65
$GLGSV,3,3,12,84,48,073,,85,38,153,38,,,,45,,,,40*6D
$GNGLL,3620.15239,N,12043.83950,E,112656.00,A,D*7D
$GNRMC,112657.00,A,3620.15222,N,12043.83939,E,1.309,210.97,151024,,,D*7B
$GNVTG,210.97,T,,M,1.309,N,2.424,K,D*20
$GNGGA,112657.00,3620.15222,N,12043.83939,E,2,12,0.89,40.0,M,6.0,M,,0000*4A
$GNGSA,A,3,27,16,08,04,09,31,07,18,,,,,1.69,0.89,1.44*19
$GNGSA,A,3,75,85,65,72,73,66,,,,,,,1.69,0.89,1.44*1F
$GPGSV,4,1,14,04,45,240,33,07,18,312,38,08,53,215,30,09,36,283,36*74
$GPGSV,4,2,14,16,57,037,40,18,12,046,38,21,02,181,27,26,31,071,19*78
$GPGSV,4,3,14,27,84,134,38,28,01,131,,31,32,126,33,40,11,255,39*7D
$GPGSV,4,4,14,41,32,233,,50,47,169,37*76
$GLGSV,3,1,12,65,26,284,31,66,10,332,28,72,17,224,28,73,13,091,28*6F
$GLGSV,3,2,12,74,46,056,,75,45,330,45,76,00,291,,83,05,021,*61
$GLGSV,3,3,12,84,48,073,,85,38,153,42,,,,42,,,,38*68
$GNGLL,3620.15222,N,12043.83939,E,112657.00,A,D*79
$GNRMC,112658.00,A,3620.15210,N,12043.83922,E,1.086,219.81,151024,,,D*75
$GNVTG,219.81,T,,M,1.086,N,2.012,K,D*2B
$GNGGA,112658.00,3620.15210,N,12043.83922,E,2,12,0.75,39.9,M,6.0,M,,0000*4A
$GNGSA,A,3,27,16,08,04,09,31,26,07,18,,,,1.55,0.75,1.35*17
$GNGSA,A,3,75,85,65,72,73,66,,,,,,,1.55,0.75,1.35*15
$GPGSV,4,1,14,04,45,240,32,07,18,312,39,08,53,215,38,09,36,283,31*7B
$GPGSV,4,2,14,16,57,037,40,18,12,046,37,21,02,181,26,26,31,071,19*76
$GPGSV,4,3,14,27,84,134,38,28,01,131,,31,32,126,36,40,11,255,37*76
$GPGSV,4,4,14,41,32,233,,50,47,169,36*77
$GLGSV,3,1,12,65,26,284,36,66,10,332,28,72,17,224,36,73,13,091,33*6D
$GLGSV,3,2,12,74,46,056,,75,45,330,45,76,00,291,,83,05,021,*61
$GLGSV,3,3,12,84,48,073,,85,38,153,37,,,,43,,,,35*66
$GNGLL,3620.15210,N,12043.83922,E,112658.00,A,D*7D
$GNRMC,112659.00,A,3620.15195,N,12043.83900,E,0.945,218.09,151024,,,D*7C
$GNVTG,218.09,T,,M,0.945,N,1.751,K,D*2E
$GNGGA,112659.00,3620.15195,N,12043.83900,E,2,12,0.69,39.8,M,6.0,M,,0000*49
$GNGSA,A,3,27,16,08,04,09,31,26,07,18,,,,1.37,0.69,1.19*10
$GNGSA,A,3,75,85,65,72,73,66,,,,,,,1.37,0.69,1.19*12
$GPGSV,4,1,14,04,45,240,32,07,18,312,36,08,53,215,35,09,36,283,39*71
$GPGSV,4,2,14,16,57,037,39,18,12,046,34,21,02,181,23,26,31,071,21*75
$GPGSV,4,3,14,27,84,134,40,28,01,131,16,31,32,126,30,40,11,255,35*7A
$GPGSV,4,4,14,41,32,233,,50,47,169,36*77
$GLGSV,3,1,12,65,26,284,36,66,10,332,29,72,17,224,31,73,13,091,32*6A
$GLGSV,3,2,12,74,46,056,,75,45,330,41,76,00,291,,83,05,021,*65
$GLGSV,3,3,12,84,48,073,,85,38,153,38,,,,38,,,,40*67
$GNGLL,3620.15195,N,12043.83900,E,112659.00,A,D*72
$GNRMC,112700.00,A,3620.15178,N,12043.83874,E,1.445,227.00,151024,,,D*79
$GNVTG,227.00,T,,M,1.445,N,2.676,K,D*20
$GNGGA,112700.00,3620.15178,N,12043.83874,E,2,12,0.75,39.5,M,6.0,M,,0000*45
$GNGSA,A,3,27,16,08,04,09,31,26,07,18,,,,1.55,0.75,1.35*17
$GNGSA,A,3,75,85,65,72,73,66,,,,,,,1.55,0.75,1.35*15
$GPGSV,4,1,14,04,45,240,36,07,18,312,36,08,53,215,40,09,36,283,42*7B
$GPGSV,4,2,14,16,57,037,41,18,12,046,34,21,02,181,23,26,31,071,21*7A
$GPGSV,4,3,14,27,84,134,43,28,01,131,16,31,32,126,35,40,11,255,35*7C
$GPGSV,4,4,14,41,32,233,,50,47,169,37*76
$GLGSV,3,1,12,65,26,284,43,66,10,332,33,72,16,224,30,73,13,091,31*60
$GLGSV,3,2,12,74,46,056,,75,45,330,44,76,00,291,,83,05,021,*60
$GLGSV,3,3,12,84,48,073,,85,38,153,42,,,,32,,,,36*61
$GNGLL,3620.15178,N,12043.83874,E,112700.00,A,D*7E
$GNRMC,112701.00,A,3620.15157,N,12043.83833,E,1.672,232.60,151024,,,D*72
$GNVTG,232.60,T,,M,1.672,N,3.097,K,D*2C
$GNGGA,112701.00,3620.15157,N,12043.83833,E,2,12,0.70,39.4,M,6.0,M,,0000*4E
$GNGSA,A,3,27,16,08,04,09,31,26,07,18,,,,1.36,0.70,1.17*17
$GNGSA,A,3,75,85,65,72,73,66,,,,,,,1.36,0.70,1.17*15
$GPGSV,4,1,14,04,45,240,37,07,18,312,38,08,53,215,38,09,36,283,41*78
$GPGSV,4,2,14,16,57,037,41,18,12,046,35,21,02,181,23,26,31,071,22*78
$GPGSV,4,3,14,27,84,134,39,28,01,131,,31,32,126,32,40,11,255,*77
$GPGSV,4,4,14,41,32,233,,50,47,169,36*77
$GLGSV,3,1,12,65,26,284,41,66,10,332,28,72,16,224,35,73,13,091,32*6E
$GLGSV,3,2,12,74,46,056,35,75,45,330,44,76,00,291,,83,05,021,*66
$GLGSV,3,3,12,84,48,073,,85,38,153,46,,,,36,,,,42*62
$GNGLL,3620.15157,N,12043.83833,E,112701.00,A,D*71
$GNRMC,112702.00,A,3620.15133,N,12043.83785,E,1.768,234.12,151024,,,D*78
$GNVTG,234.12,T,,M,1.768,N,3.275,K,D*2B
$GNGGA,112702.00,3620.15133,N,12043.83785,E,2,12,0.63,39.4,M,6.0,M,,0000*4F
$GNGSA,A,3,27,16,08,04,09,31,26,07,18,,,,1.25,0.63,1.08*19
$GNGSA,A,3,75,85,65,72,73,66,,,,,,,1.25,0.63,1.08*1B
$GPGSV,4,1,14,04,45,240,37,07,18,312,38,08,53,215,39,09,36,283,37*78
$GPGSV,4,2,14,16,57,037,42,18,12,046,38,21,02,181,24,26,31,071,22*71
$GPGSV,4,3,14,27,84,134,39,28,01,131,,31,32,126,23,40,11,255,*77
$GPGSV,4,4,14,41,32,233,,50,47,169,36*77
$GLGSV,3,1,12,65,26,284,38,66,10,332,28,72,16,224,30,73,13,091,32*65
$GLGSV,3,2,12,74,46,057,36,75,45,330,45,76,00,291,,83,05,021,*65
$GLGSV,3,3,12,84,48,073,,85,38,153,43,,,,32,,,,44*65
$GNGLL,3620.15133,N,12043.83785,E,112702.00,A,D*72
$GNRMC,112703.00,A,3620.15112,N,12043.83730,E,1.791,240.58,151024,,,D*7F
$GNVTG,240.58,T,,M,1.791,N,3.317,K,D*25
$GNGGA,112703.00,3620.15112,N,12043.83730,E,2,12,0.63,39.5,M,6.0,M,,0000*42
$GNGSA,A,3,27,16,08,04,09,31,26,07,18,,,,1.25,0.63,1.08*19
$GNGSA,A,3,75,85,65,72,73,66,,,,,,,1.25,0.63,1.08*1B
$GPGSV,4,1,14,04,45,240,37,07,18,312,35,08,53,215,38,09,36,283,42*76
$GPGSV,4,2,14,16,57,037,40,18,12,046,38,21,02,181,26,26,31,071,24*77
$GPGSV,4,3,14,27,84,134,39,28,01,131,,31,32,126,37,40,11,255,*72
$GPGSV,4,4,14,41,32,233,,50,47,169,34*75
$GLGSV,3,1,12,65,26,284,40,66,10,332,28,72,16,224,30,73,13,091,31*69
$GLGSV,3,2,12,74,46,057,31,75,45,331,47,76,00,291,,83,05,021,*61
$GLGSV,3,3,12,84,48,073,,85,38,153,42,,,,32,,,,40*60
$GNGLL,3620.15112,N,12043.83730,E,112703.00,A,D*7E
$GNRMC,112704.00,A,3620.15094,N,12043.83669,E,1.678,244.85,151024,,,D*78
$GNVTG,244.85,T,,M,1.678,N,3.108,K,D*2B
$GNGGA,112704.00,3620.15094,N,12043.83669,E,2,12,0.63,39.8,M,6.0,M,,0000*4A
$GNGSA,A,3,27,16,08,04,09,31,26,07,18,,,,1.25,0.63,1.08*19
$GNGSA,A,3,75,85,65,72,73,66,,,,,,,1.25,0.63,1.08*1B
$GPGSV,4,1,14,04,45,240,33,07,18,312,37,08,53,215,39,09,36,283,43*70
$GPGSV,4,2,14,16,57,037,43,18,12,046,38,21,02,181,24,26,31,071,24*76
$GPGSV,4,3,14,27,84,134,37,28,01,131,,31,32,126,32,40,11,255,*79
$GPGSV,4,4,14,41,32,233,,50,47,169,32*73
$GLGSV,3,1,12,65,26,284,38,66,10,332,33,72,16,224,34,73,13,091,30*69
$GLGSV,3,2,12,74,46,057,36,75,45,331,46,76,01,292,,83,05,021,*65
$GLGSV,3,3,12,84,48,073,,85,38,153,44,,,,39,,,,38*62
$GNGLL,3620.15094,N,12043.83669,E,112704.00,A,D*7B
$GNRMC,112705.00,A,3620.15089,N,12043.83625,E,1.385,250.26,151024,,,D*76
$GNVTG,250.26,T,,M,1.385,N,2.566,K,D*2D
$GNGGA,112705.00,3620.15089,N,12043.83625,E,2,12,0.77,40.0,M,6.0,M,,0000*4C
$GNGSA,A,3,27,16,08,04,09,31,26,07,18,,,,1.56,0.77,1.35*16
$GNGSA,A,3,75,85,65,72,73,66,,,,,,,1.56,0.77,1.35*14
$GPGSV,4,1,14,04,45,240,36,07,18,312,38,08,53,215,36,09,36,283,42*74
$GPGSV,4,2,14,16,57,037,43,18,12,046,29,21,02,181,23,26,31,071,25*70
$GPGSV,4,3,14,27,84,134,39,28,01,131,,31,32,126,40,40,11,255,*72
$GPGSV,4,4,14,41,32,233,,50,47,169,38*79
$GLGSV,3,1,12,65,26,284,34,66,10,332,40,72,16,224,38,73,13,091,35*68
$GLGSV,3,2,12,74,46,057,35,75,45,331,46,76,01,292,,83,05,021,*66
$GLGSV,3,3,12,84,48,073,,85,38,153,45,,,,32,,,,34*64
$GNGLL,3620.15089,N,12043.83625,E,112705.00,A,D*7E
$GNRMC,112706.00,A,3620.15084,N,12043.83572,E,1.473,256.69,151024,,,D*7A
$GNVTG,256.69,T,,M,1.473,N,2.727,K,D*29
$GNGGA,112706.00,3620.15084,N,12043.83572,E,2,12,0.67,39.9,M,6.0,M,,0000*45
$GNGSA,A,3,27,16,08,04,09,31,26,07,18,,,,1.33,0.67,1.14*17
$GNGSA,A,3,75,85,65,72,73,66,,,,,,,1.33,0.67,1.14*15
$GPGSV,4,1,14,04,45,240,36,07,18,312,36,08,53,215,36,09,36,283,42*7A
$GPGSV,4,2,14,16,57,037,42,18,12,046,31,21,02,181,21,26,31,071,25*7A
$GPGSV,4,3,14,27,84,134,37,28,01,131,,31,32,126,38,40,11,255,*73
$GPGSV,4,4,14,41,32,233,,50,47,169,33*72
$GLGSV,3,1,12,65,26,284,34,66,10,332,39,72,16,224,28,73,13,091,29*6A
$GLGSV,3,2,12,74,46,057,28,75,45,331,49,76,01,292,,83,05,021,*65
$GLGSV,3,3,12,84,48,073,,85,38,153,44,,,,33,,,,36*66
$GNGLL,3620.15084,N,12043.83572,E,112706.00,A,D*71
$GNRMC,112707.00,A,3620.15096,N,12043.83532,E,1.368,266.50,151024,,,D*78
$GNVTG,266.50,T,,M,1.368,N,2.534,K,D*2D
$GNGGA,112707.00,3620.15096,N,12043.83532,E,2,12,0.69,39.4,M,6.0,M,,0000*40
$GNGSA,A,3,27,16,08,04,09,31,26,07,18,,,,1.37,0.69,1.19*10
$GNGSA,A,3,75,85,65,72,73,66,,,,,,,1.37,0.69,1.19*12
$GPGSV,4,1,14,04,45,240,32,07,18,312,42,08,53,215,36,09,36,283,40*7F
$GPGSV,4,2,14,16,57,037,42,18,12,046,36,21,02,181,19,26,31,071,25*76
$GPGSV,4,3,14,27,84,134,38,28,01,131,,31,32,126,40,40,11,255,*73
$GPGSV,4,4,14,41,32,233,38,50,47,169,39*73
$GLGSV,3,1,12,65,26,284,42,66,10,332,44,72,16,224,34,73,13,091,29*6C
$GLGSV,3,2,12,74,46,057,27,75,45,331,44,76,01,292,,83,05,021,*67
$GLGSV,3,3,12,84,48,073,,85,38,153,42,,,,33,,,,43*62
$GNGLL,3620.15096,N,12043.83532,E,112707.00,A,D*77
$GNRMC,112708.00,A,3620.15113,N,12043.83484,E,1.650,278.66,151024,,,D*73
$GNVTG,278.66,T,,M,1.650,N,3.057,K,D*28
$GNGGA,112708.00,3620.15113,N,12043.83484,E,2,12,0.63,39.2,M,6.0,M,,0000*43
$GNGSA,A,3,27,16,08,04,09,31,26,07,18,,,,1.25,0.63,1.08*19
$GNGSA,A,3,75,85,65,72,73,66,,,,,,,1.25,0.63,1.08*1B
$GPGSV,4,1,14,04,45,240,32,07,18,312,37,08,53,215,38,09,36,283,38*7C
$GPGSV,4,2,14,16,57,037,41,18,12,046,39,21,02,181,18,26,31,071,24*7A
$GPGSV,4,3,14,27,84,134,38,28,01,131,,31,32,126,35,40,11,255,*71
$GPGSV,4,4,14,41,32,233,35,50,47,169,37*70
$GLGSV,3,1,12,65,26,284,41,66,10,332,41,72,16,224,33,73,13,091,34*61
$GLGSV,3,2,12,74,46,057,26,75,45,331,43,76,01,292,,83,05,021,*61
$GLGSV,3,3,12,84,48,073,,85,38,153,44,,,,37,,,,43*60
$GNGLL,3620.15113,N,12043.83484,E,112708.00,A,D*78
$GNRMC,112709.00,A,3620.15135,N,12043.83427,E,1.843,286.76,151024,,,D*73
$GNVTG,286.76,T,,M,1.843,N,3.413,K,D*20
$GNGGA,112709.00,3620.15135,N,12043.83427,E,2,12,0.67,39.0,M,6.0,M,,0000*49
$GNGSA,A,3,27,16,08,04,09,31,26,07,18,,,,1.33,0.67,1.14*17
$GNGSA,A,3,75,85,65,72,73,66,,,,,,,1.33,0.67,1.14*15
$GPGSV,4,1,14,04,45,240,36,07,18,312,37,08,53,215,38,09,36,283,37*77
$GPGSV,4,2,14,16,57,037,41,18,12,046,43,21,02,181,19,26,31,071,27*75
$GPGSV,4,3,14,27,84,134,39,28,01,131,,31,32,126,40,40,11,255,*72
$GPGSV,4,4,14,41,32,233,35,50,47,169,38*7F
$GLGSV,3,1,12,65,26,284,39,66,10,332,41,72,16,224,32,73,13,091,27*6D
$GLGSV,3,2,12,74,46,057,28,75,45,331,43,76,01,292,,83,05,021,*6F
$GLGSV,3,3,12,84,48,073,,85,38,153,40,,,,36,,,,44*62
$GNGLL,3620.15135,N,12043.83427,E,112709.00,A,D*74
$GNRMC,112710.00,A,3620.15161,N,12043.83367,E,1.973,294.22,151024,,,D*79
$GNVTG,294.22,T,,M,1.973,N,3.654,K,D*21
$GNGGA,112710.00,3620.15161,N,12043.83367,E,2,12,0.65,38.9,M,6.0,M,,0000*49
$GNGSA,A,3,27,16,08,04,09,31,26,07,18,,,,1.27,0.65,1.09*1C
$GNGSA,A,3,75,85,65,72,73,66,,,,,,,1.27,0.65,1.09*1E
$GPGSV,4,1,14,04,45,240,32,07,18,312,33,08,53,215,34,09,36,283,36*7A
$GPGSV,4,2,14,16,57,037,41,18,12,046,32,21,02,181,22,26,31,071,28*74
$GPGSV,4,3,14,27,84,134,38,28,01,131,,31,32,126,40,40,11,255,*73
$GPGSV,4,4,14,41,32,233,34,50,47,169,38*7E
$GLGSV,3,1,12,65,26,284,35,66,10,332,42,72,16,224,31,73,13,091,29*6F
$GLGSV,3,2,12,74,46,057,37,75,45,331,39,76,01,292,,83,05,021,*6C
$GLGSV,3,3,12,84,48,073,,85,38,153,40,,,,25,,,,45*61
$GNGLL,3620.15161,N,12043.83367,E,112710.00,A,D*7E
$GNRMC,112711.00,A,3620.15183,N,12043.83304,E,1.826,296.64,151024,,,D*70
$GNVTG,296.64,T,,M,1.826,N,3.382,K,D*2E
$GNGGA,112711.00,3620.15183,N,12043.83304,E,2,12,0.65,39.3,M,6.0,M,,0000*4A
$GNGSA,A,3,27,16,08,04,09,31,26,07,18,,,,1.27,0.65,1.09*1C
$GNGSA,A,3,75,85,65,72,73,66,,,,,,,1.27,0.65,1.09*1E
$GPGSV,4,1,14,04,45,240,33,07,18,312,37,08,53,215,33,09,36,283,36*78
$GPGSV,4,2,14,16,57,037,41,18,12,046,31,21,02,181,22,26,31,071,28*77
$GPGSV,4,3,14,27,84,134,38,28,01,131,,31,32,126,42,40,11,255,*71
$GPGSV,4,4,14,41,32,233,34,50,47,169,36*70
$GLGSV,3,1,12,65,26,284,35,66,10,332,29,72,16,224,31,73,13,091,30*6A
$GLGSV,3,2,12,74,46,057,35,75,45,331,40,76,01,292,,83,04,021,*61
$GLGSV,3,3,12,84,48,073,,85,38,153,42,,,,24,,,,46*61
$GNGLL,3620.15183,N,12043.83304,E,112711.00,A,D*76
$GNRMC,112712.00,A,3620.15207,N,12043.83248,E,1.745,301.59,151024,,,D*7E
$GNVTG,301.59,T,,M,1.745,N,3.232,K,D*2F
$GNGGA,112712.00,3620.15207,N,12043.83248,E,2,12,0.60,39.6,M,6.0,M,,0000*4F
$GNGSA,A,3,27,16,08,04,09,31,26,07,18,,,,1.19,0.60,1.03*1E
$GNGSA,A,3,75,85,65,72,73,66,,,,,,,1.19,0.60,1.03*1C
$GPGSV,4,1,14,04,45,240,36,07,18,312,37,08,53,215,33,09,36,283,37*7C
$GPGSV,4,2,14,16,57,037,41,18,12,046,30,21,02,181,23,26,31,071,29*76
$GPGSV,4,3,14,27,84,134,38,28,01,131,,31,32,126,42,40,11,255,*71
$GPGSV,4,4,14,41,32,233,33,50,47,169,35*74
$GLGSV,3,1,12,65,26,284,38,66,10,332,34,72,16,224,32,73,13,091,30*68
$GLGSV,3,2,12,74,46,057,34,75,45,331,40,76,01,292,,83,04,021,*60
$GLGSV,3,3,12,84,48,072,,85,38,153,42,,,,36,,,,45*60
$GNGLL,3620.15207,N,12043.83248,E,112712.00,A,D*73
$GNRMC,112713.00,A,3620.15239,N,12043.83202,E,1.802,305.45,151024,,,D*79
$GNVTG,305.45,T,,M,1.802,N,3.337,K,D*2E
$GNGGA,112713.00,3620.15239,N,12043.83202,E,2,12,0.70,39.5,M,6.0,M,,0000*4F
$GNGSA,A,3,27,16,08,04,09,31,26,07,18,,,,1.32,0.70,1.13*17
$GNGSA,A,3,75,85,65,72,73,66,,,,,,,1.32,0.70,1.13*15
$GPGSV,4,1,14,04,45,240,33,07,18,312,37,08,53,215,35,09,36,283,37*7F
$GPGSV,4,2,14,16,57,037,41,18,12,046,27,21,02,181,24,26,31,071,29*77
$GPGSV,4,3,14,27,84,134,37,28,01,131,,31,32,126,40,40,11,255,*7C
$GPGSV,4,4,14,41,32,233,32,50,47,169,32*72
$GLGSV,3,1,12,65,26,284,41,66,10,332,37,72,16,224,32,73,13,091,30*65
$GLGSV,3,2,12,74,46,057,35,75,45,331,35,76,01,292,,83,04,021,*63
$GLGSV,3,3,12,84,48,072,,85,38,153,44,,,,38,,,,42*6F
$GNGLL,3620.15239,N,12043.83202,E,112713.00,A,D*71
$GNRMC,112714.00,A,3620.15271,N,12043.83163,E,1.692,308.86,151024,,,D*73
$GNVTG,308.86,T,,M,1.692,N,3.134,K,D*2A
$GNGGA,112714.00,3620.15271,N,12043.83163,E,2,12,0.73,39.4,M,6.0,M,,0000*42
$GNGSA,A,3,27,16,08,04,09,31,26,07,18,,,,1.45,0.73,1.25*11
$GNGSA,A,3,75,85,65,72,73,66,,,,,,,1.45,0.73,1.25*13
$GPGSV,4,1,14,04,45,240,33,07,18,312,38,08,53,215,38,09,36,283,40*7D
$GPGSV,4,2,14,16,57,037,39,18,12,046,24,21,02,181,23,26,31,071,30*74
$GPGSV,4,3,14,27,84,134,37,28,01,131,,31,32,126,39,40,11,255,*72
$GPGSV,4,4,14,41,32,233,31,50,47,169,30*73
$GLGSV,3,1,12,65,26,284,43,66,10,332,39,72,16,224,32,73,13,091,29*61
$GLGSV,3,2,12,74,46,057,36,75,45,331,30,76,01,292,,83,04,021,*65
$GLGSV,3,3,12,84,48,072,,85,38,153,45,,,,34,,,,42*62
$GNGLL,3620.15271,N,12043.83163,E,112714.00,A,D*7E
$GNRMC,112715.00,A,3620.15305,N,12043.83125,E,1.727,312.34,151024,,,D*7F
$GNVTG,312.34,T,,M,1.727,N,3.198,K,D*21
$GNGGA,112715.00,3620.15305,N,12043.83125,E,2,12,0.73,39.3,M,6.0,M,,0000*44
$GNGSA,A,3,27,16,08,04,09,31,26,07,18,,,,1.45,0.73,1.25*11
$GNGSA,A,3,75,85,65,72,73,66,,,,,,,1.45,0.73,1.25*13
$GPGSV,4,1,14,04,45,240,33,07,18,312,37,08,53,215,38,09,36,283,39*7C
$GPGSV,4,2,14,16,57,037,42,18,12,046,24,21,02,181,23,26,31,071,30*78
$GPGSV,4,3,14,27,84,134,38,28,01,131,,31,32,126,40,40,11,255,*73
$GPGSV,4,4,14,41,32,233,30,50,47,169,29*7A
$GLGSV,3,1,12,65,26,284,43,66,10,332,41,72,16,224,32,73,13,091,28*6F
$GLGSV,3,2,12,74,46,057,37,75,45,331,30,76,01,292,,83,04,021,*64
$GLGSV,3,3,12,84,48,072,,85,38,153,44,,,,29,,,,44*69
$GNGLL,3620.15305,N,12043.83125,E,112715.00,A,D*7F
$GNRMC,112716.00,A,3620.15344,N,12043.83086,E,1.897,312.09,151024,,,D*7B
$GNVTG,312.09,T,,M,1.897,N,3.514,K,D*2B
$GNGGA,112716.00,3620.15344,N,12043.83086,E,2,12,0.70,38.9,M,6.0,M,,0000*42
$GNGSA,A,3,27,16,08,04,09,31,26,07,18,,,,1.32,0.70,1.13*17
$GNGSA,A,3,75,85,65,72,73,66,,,,,,,1.32,0.70,1.13*15
$GPGSV,4,1,14,04,45,240,33,07,18,312,37,08,53,215,39,09,36,283,33*77
$GPGSV,4,2,14,16,57,037,41,18,12,046,25,21,02,181,25,26,31,071,34*78
$GPGSV,4,3,14,27,84,134,38,28,01,131,,31,32,126,40,40,11,255,*73
$GPGSV,4,4,14,41,32,233,30,50,47,169,*71
$GLGSV,3,1,12,65,26,284,43,66,10,332,40,72,16,224,23,73,13,091,27*61
$GLGSV,3,2,12,74,46,057,37,75,45,331,30,76,01,292,,83,04,021,*64
$GLGSV,3,3,12,84,48,072,,85,38,153,46,,,,29,,,,45*6A
$GNGLL,3620.15344,N,12043.83086,E,112716.00,A,D*71
$GNRMC,112717.00,A,3620.15388,N,12043.83055,E,1.834,315.18,151024,,,D*7A
$GNVTG,315.18,T,,M,1.834,N,3.397,K,D*28
$GNGGA,112717.00,3620.15388,N,12043.83055,E,2,12,0.70,38.2,M,6.0,M,,0000*46
$GNGSA,A,3,27,16,08,04,09,31,26,07,18,,,,1.32,0.70,1.13*17
$GNGSA,A,3,75,85,65,72,73,66,,,,,,,1.32,0.70,1.13*15
$GPGSV,4,1,14,04,45,240,34,07,18,312,37,08,53,215,39,09,36,283,37*74
$GPGSV,4,2,14,16,57,037,41,18,12,046,29,21,02,181,29,26,31,071,37*7B
$GPGSV,4,3,14,27,84,134,39,28,01,131,,31,32,126,42,40,11,255,*70
$GPGSV,4,4,14,41,32,233,29,50,47,169,*79
$GLGSV,3,1,12,65,26,284,46,66,10,332,43,72,16,224,25,73,13,091,27*61
$GLGSV,3,2,12,74,46,057,37,75,45,331,38,76,01,292,,83,04,021,*6C
$GLGSV,3,3,12,84,48,072,,85,38,153,47,,,,28,,,,45*6A
$GNGLL,3620.15388,N,12043.83055,E,112717.00,A,D*7E
$GNRMC,112718.00,A,3620.15434,N,12043.83025,E,1.784,319.88,151024,,,D*73
$GNVTG,319.88,T,,M,1.784,N,3.303,K,D*24
$GNGGA,112718.00,3620.15434,N,12043.83025,E,2,12,0.70,37.8,M,6.0,M,,0000*4B
$GNGSA,A,3,27,16,08,04,09,31,26,07,18,,,,1.32,0.70,1.13*17
$GNGSA,A,3,75,85,65,72,73,66,,,,,,,1.32,0.70,1.13*15
$GPGSV,4,1,14,04,45,240,39,07,18,312,33,08,53,215,41,09,36,283,38*7D
$GPGSV,4,2,14,16,57,037,38,18,12,046,28,21,02,181,27,26,31,071,35*78
$GPGSV,4,3,14,27,84,134,39,28,01,131,,31,32,126,41,40,11,255,*73
$GPGSV,4,4,14,41,32,233,,50,47,169,*72
$GLGSV,3,1,12,65,26,284,44,66,10,332,42,72,16,224,25,73,13,091,28*6D
$GLGSV,3,2,12,74,46,057,37,75,45,331,43,76,01,292,,83,04,021,*60
$GLGSV,3,3,12,84,48,072,,85,38,153,44,,,,29,,,,47*6A
$GNGLL,3620.15434,N,12043.83025,E,112718.00,A,D*76
$GNRMC,112719.00,A,3620.15482,N,12043.82997,E,1.910,324.38,151024,,,D*78
$GNVTG,324.38,T,,M,1.910,N,3.537,K,D*23
$GNGGA,112719.00,3620.15482,N,12043.82997,E,2,12,0.75,37.4,M,6.0,M,,0000*4F
$GNGSA,A,3,27,16,08,04,09,31,26,07,18,,,,1.43,0.75,1.22*16
$GNGSA,A,3,75,85,65,72,73,66,,,,,,,1.43,0.75,1.22*14
$GPGSV,4,1,14,04,45,239,38,07,18,312,39,08,53,215,39,09,36,283,33*7C
$GPGSV,4,2,14,16,57,037,37,18,12,046,26,21,02,181,26,26,31,071,30*7D
$GPGSV,4,3,14,27,84,134,39,28,01,131,,31,32,126,42,40,11,255,*70
$GPGSV,4,4,14,41,32,233,,50,47,169,*72
$GLGSV,3,1,12,65,26,284,45,66,10,332,35,72,16,224,26,73,13,091,26*61
$GLGSV,3,2,12,74,46,057,38,75,45,331,40,76,01,292,,83,04,021,*6C
$GLGSV,3,3,12,84,48,072,,85,38,153,41,,,,30,,,,43*63
$GNGLL,3620.15482,N,12043.82997,E,112719.00,A,D*7B
$GNRMC,112720.00,A,3620.15532,N,12043.82965,E,1.913,328.41,151024,,,D*74
$GNVTG,328.41,T,,M,1.913,N,3.543,K,D*21
$GNGGA,112720.00,3620.15532,N,12043.82965,E,2,12,0.70,37.3,M,6.0,M,,0000*40
$GNGSA,A,3,27,16,08,04,09,31,26,07,18,,,,1.32,0.70,1.13*17
$GNGSA,A,3,75,85,65,72,73,66,,,,,,,1.32,0.70,1.13*15
$GPGSV,4,1,14,04,45,239,37,07,18,312,42,08,53,215,39,09,36,283,37*7B
$GPGSV,4,2,14,16,57,037,34,18,12,046,25,21,02,181,26,26,31,071,35*78
$GPGSV,4,3,14,27,84,134,38,28,01,131,,31,32,126,42,40,11,255,*71
$GPGSV,4,4,14,41,32,233,,50,47,169,*72
$GLGSV,3,1,12,65,26,284,42,66,10,332,31,72,16,224,26,73,13,091,33*66
$GLGSV,3,2,12,74,46,057,38,75,45,331,40,76,01,292,,83,04,021,*6C
$GLGSV,3,3,12,84,48,072,,85,38,153,39,,,,28,,,,42*64
$GNGLL,3620.15532,N,12043.82965,E,112720.00,A,D*76
$GNRMC,112721.00,A,3620.15593,N,12043.82945,E,2.159,334.61,151024,,,D*76
$GNVTG,334.61,T,,M,2.159,N,3.998,K,D*21
$GNGGA,112721.00,3620.15593,N,12043.82945,E,2,12,0.75,36.9,M,6.0,M,,0000*46
$GNGSA,A,3,27,16,08,04,09,31,26,07,18,,,,1.43,0.75,1.22*16
$GNGSA,A,3,75,85,65,72,73,66,,,,,,,1.43,0.75,1.22*14
$GPGSV,4,1,14,04,45,239,42,07,18,312,41,08,53,215,36,09,36,283,38*7A
$GPGSV,4,2,14,16,57,037,28,18,12,046,24,21,02,181,33,26,31,071,34*71
$GPGSV,4,3,14,27,84,134,39,28,01,131,,31,32,126,43,40,11,255,*71
$GPGSV,4,4,14,41,32,233,,50,47,169,*72
$GLGSV,3,1,12,65,26,284,42,66,10,332,41,72,16,224,26,73,13,091,34*66
$GLGSV,3,2,12,74,46,057,35,75,45,331,40,76,01,292,,83,04,021,*61
$GLGSV,3,3,12,84,48,072,,85,38,153,42,,,,29,,,,45*6E
$GNGLL,3620.15593,N,12043.82945,E,112721.00,A,D*7E
$GNRMC,112722.00,A,3620.15660,N,12043.82923,E,2.358,337.05,151024,,,D*78
$GNVTG,337.05,T,,M,2.358,N,4.366,K,D*2F
$GNGGA,112722.00,3620.15660,N,12043.82923,E,2,12,0.75,36.5,M,6.0,M,,0000*46
$GNGSA,A,3,27,16,08,04,09,31,26,07,18,,,,1.43,0.75,1.22*16
$GNGSA,A,3,75,85,65,72,73,66,,,,,,,1.43,0.75,1.22*14
$GPGSV,4,1,14,04,45,239,37,07,19,312,39,08,53,215,38,09,36,283,38*78
$GPGSV,4,2,14,16,57,037,34,18,12,046,24,21,02,181,32,26,31,071,34*7D
$GPGSV,4,3,14,27,84,134,39,28,01,131,,31,32,126,42,40,11,255,*70
$GPGSV,4,4,14,41,32,233,,50,47,169,*72
$GLGSV,3,1,12,65,26,284,43,66,10,332,39,72,16,224,27,73,13,091,42*68
$GLGSV,3,2,12,74,46,057,36,75,45,331,41,76,01,292,,83,04,021,*63
$GLGSV,3,3,12,84,48,072,,85,38,153,40,,,,29,,,,44*6D
$GNGLL,3620.15660,N,12043.82923,E,112722.00,A,D*72
$GNRMC,112723.00,A,3620.15727,N,12043.82893,E,2.455,336.36,151024,,,D*7A
$GNVTG,336.36,T,,M,2.455,N,4.547,K,D*21
$GNGGA,112723.00,3620.15727,N,12043.82893,E,2,12,0.75,36.4,M,6.0,M,,0000*4E
$GNGSA,A,3,27,16,08,04,09,31,26,07,18,,,,1.43,0.75,1.22*16
$GNGSA,A,3,75,85,65,72,73,66,,,,,,,1.43,0.75,1.22*14
$GPGSV,4,1,14,04,45,239,41,07,19,312,41,08,53,215,38,09,36,283,38*76
$GPGSV,4,2,14,16,57,037,33,18,12,046,24,21,02,181,32,26,31,071,30*7E
$GPGSV,4,3,14,27,84,134,39,28,01,131,,31,32,126,42,40,11,255,*70
$GPGSV,4,4,14,41,32,233,,50,47,169,*72
$GLGSV,3,1,12,65,26,284,41,66,10,332,32,72,16,224,27,73,13,091,37*63
$GLGSV,3,2,12,74,46,057,37,75,45,331,43,76,01,292,,83,04,021,*60
$GLGSV,3,3,12,84,48,072,,85,38,153,41,,,,29,,,,43*6B
$GNGLL,3620.15727,N,12043.82893,E,112723.00,A,D*7B
$GNRMC,112724.00,A,3620.15790,N,12043.82865,E,2.320,335.96,151024,,,D*74
$GNVTG,335.96,T,,M,2.320,N,4.296,K,D*26
$GNGGA,112724.00,3620.15790,N,12043.82865,E,2,12,0.75,36.2,M,6.0,M,,0000*4A
$GNGSA,A,3,27,16,08,04,09,31,26,07,18,,,,1.43,0.75,1.22*16
$GNGSA,A,3,75,85,65,72,73,66,,,,,,,1.43,0.75,1.22*14
$GPGSV,4,1,14,04,45,239,40,07,19,312,42,08,53,215,38,09,36,283,38*74
$GPGSV,4,2,14,16,57,037,33,18,12,046,23,21,02,181,33,26,31,071,30*78
$GPGSV,4,3,14,27,84,134,39,28,01,131,,31,32,126,43,40,11,255,*71
$GPGSV,4,4,14,41,32,233,,50,47,169,*72
$GLGSV,3,1,12,65,26,284,40,66,10,332,36,72,16,224,25,73,13,091,34*67
$GLGSV,3,2,12,74,46,057,37,75,45,331,41,76,01,292,,83,04,021,*62
$GLGSV,3,3,12,84,48,072,,85,38,153,41,,,,30,,,,40*60
$GNGLL,3620.15790,N,12043.82865,E,112724.00,A,D*79
$GNRMC,112725.00,A,3620.15850,N,12043.82846,E,2.086,338.65,151024,,,D*79
$GNVTG,338.65,T,,M,2.086,N,3.862,K,D*2E
$GNGGA,112725.00,3620.15850,N,12043.82846,E,2,12,0.79,36.0,M,6.0,M,,0000*47
$GNGSA,A,3,27,16,08,04,09,31,26,07,18,,,,1.62,0.79,1.41*1C
$GNGSA,A,3,75,85,65,72,73,66,,,,,,,1.62,0.79,1.41*1E
$GPGSV,4,1,14,04,45,239,37,07,19,312,43,08,53,215,39,09,36,283,39*75
$GPGSV,4,2,14,16,57,037,32,18,12,046,23,21,02,181,37,26,31,071,36*7B
$GPGSV,4,3,14,27,84,134,39,28,01,131,,31,32,126,42,40,11,255,*70
$GPGSV,4,4,14,41,32,233,,50,47,169,*72
$GLGSV,3,1,12,65,26,284,40,66,10,332,34,72,16,224,28,73,13,091,28*65
$GLGSV,3,2,12,74,46,057,34,75,45,331,43,76,01,292,,83,04,021,*63
$GLGSV,3,3,12,84,48,072,,85,38,153,41,,,,27,,,,42*64
$GNGLL,3620.15850,N,12043.82846,E,112725.00,A,D*7A
$GNRMC,112726.00,A,3620.15903,N,12043.82844,E,1.644,347.31,151024,,,D*7D
$GNVTG,347.31,T,,M,1.644,N,3.045,K,D*21
$GNGGA,112726.00,3620.15903,N,12043.82844,E,2,12,0.70,35.9,M,6.0,M,,0000*42
$GNGSA,A,3,27,16,08,04,09,31,26,07,18,,,,1.36,0.70,1.17*17
$GNGSA,A,3,75,85,65,72,73,66,,,,,,,1.36,0.70,1.17*15
$GPGSV,4,1,14,04,45,239,37,07,19,312,36,08,53,215,42,09,36,283,38*7A
$GPGSV,4,2,14,16,57,037,33,18,12,046,23,21,02,181,36,26,31,071,32*7F
$GPGSV,4,3,14,27,84,134,39,28,01,131,,31,32,126,40,40,11,255,*72
$GPGSV,4,4,14,41,32,233,,50,47,169,*72
$GLGSV,3,1,12,65,26,284,40,66,10,332,30,72,16,224,30,73,13,091,35*64
$GLGSV,3,2,12,74,46,057,34,75,45,331,43,76,01,292,,83,04,021,*63
$GLGSV,3,3,12,84,48,072,,85,38,153,40,,,,26,,,,42*64
$GNGLL,3620.15903,N,12043.82844,E,112726.00,A,D*7C
$GNRMC,112727.00,A,3620.15953,N,12043.82858,E,1.667,358.72,151024,,,D*7C
$GNVTG,358.72,T,,M,1.667,N,3.088,K,D*28
$GNGGA,112727.00,3620.15953,N,12043.82858,E,2,12,0.70,35.5,M,6.0,M,,0000*47
$GNGSA,A,3,27,16,08,04,09,31,26,07,18,,,,1.36,0.70,1.17*17
$GNGSA,A,3,75,85,65,72,73,66,,,,,,,1.36,0.70,1.17*15
$GPGSV,4,1,14,04,45,239,34,07,19,312,42,08,53,215,40,09,36,283,32*72
$GPGSV,4,2,14,16,57,037,33,18,12,046,21,21,02,181,31,26,31,071,26*7F
$GPGSV,4,3,14,27,84,134,39,28,01,131,,31,32,126,41,40,11,255,*73
$GPGSV,4,4,14,41,32,233,,50,47,169,*72
$GLGSV,3,1,12,65,26,284,28,66,10,332,36,72,16,224,36,73,13,091,29*67
$GLGSV,3,2,12,74,46,057,26,75,45,331,45,76,01,292,,83,04,021,*66
$GLGSV,3,3,12,84,48,072,,85,38,153,40,,,,25,,,,44*61
$GNGLL,3620.15953,N,12043.82858,E,112727.00,A,D*75
$GNRMC,112728.00,A,3620.16009,N,12043.82874,E,2.016,5.02,151024,,,D*77
$GNVTG,5.02,T,,M,2.016,N,3.733,K,D*20
$GNGGA,112728.00,3620.16009,N,12043.82874,E,2,12,0.70,35.4,M,6.0,M,,0000*42
$GNGSA,A,3,27,16,08,04,09,31,26,07,18,,,,1.36,0.70,1.17*17
$GNGSA,A,3,75,85,65,72,73,66,,,,,,,1.36,0.70,1.17*15
$GPGSV,4,1,14,04,45,239,33,07,19,312,40,08,53,215,38,09,36,283,21*7A
$GPGSV,4,2,14,16,57,037,33,18,12,046,20,21,02,181,32,26,31,071,29*72
$GPGSV,4,3,14,27,84,134,36,28,01,131,,31,32,126,40,40,11,255,*7D
$GPGSV,4,4,14,41,32,233,,50,47,169,*72
$GLGSV,3,1,12,65,26,284,30,66,10,332,35,72,16,224,36,73,13,091,31*64
$GLGSV,3,2,12,74,46,057,34,75,45,331,44,76,01,292,,83,04,021,*64
$GLGSV,3,3,12,84,48,072,,85,38,153,38,,,,25,,,,40*6A
$GNGLL,3620.16009,N,12043.82874,E,112728.00,A,D*71
$GNRMC,112729.00,A,3620.16065,N,12043.82876,E,2.066,3.33,151024,,,D*7D
$GNVTG,3.33,T,,M,2.066,N,3.827,K,D*29
$GNGGA,112729.00,3620.16065,N,12043.82876,E,2,12,0.64,35.6,M,6.0,M,,0000*4C
$GNGSA,A,3,27,16,08,04,09,31,26,07,18,,,,1.25,0.64,1.07*11
$GNGSA,A,3,75,85,65,72,73,66,,,,,,,1.25,0.64,1.07*13
$GPGSV,4,1,14,04,45,239,32,07,19,312,44,08,53,215,40,09,36,283,35*75
$GPGSV,4,2,14,16,57,037,36,18,12,046,19,21,02,181,26,26,31,071,30*70
$GPGSV,4,3,14,27,84,134,36,28,01,131,,31,32,126,39,40,11,255,*73
$GPGSV,4,4,14,41,32,233,,50,47,169,*72
$GLGSV,3,1,12,65,26,284,36,66,10,332,36,72,16,224,36,73,13,091,31*61
$GLGSV,3,2,12,74,46,057,33,75,45,331,46,76,01,292,,83,04,021,*61
$GLGSV,3,3,12,84,48,072,,85,38,153,40,,,,25,,,,44*61
$GNGLL,3620.16065,N,12043.82876,E,112729.00,A,D*78
$GNRMC,112730.00,A,3620.16119,N,12043.82861,E,2.037,356.72,151024,,,D*7B
$GNVTG,356.72,T,,M,2.037,N,3.773,K,D*25
$GNGGA,112730.00,3620.16119,N,12043.82861,E,2,12,0.64,35.9,M,6.0,M,,0000*47
$GNGSA,A,3,27,16,08,04,09,31,26,07,18,,,,1.25,0.64,1.07*11
$GNGSA,A,3,75,85,65,72,73,66,,,,,,,1.25,0.64,1.07*13
$GPGSV,4,1,14,04,45,239,37,07,19,312,40,08,53,215,42,09,36,283,41*75
$GPGSV,4,2,14,16,57,037,34,18,12,046,22,21,02,181,29,26,31,071,29*7D
$GPGSV,4,3,14,27,84,134,39,28,01,131,,31,32,126,38,40,11,255,*7D
$GPGSV,4,4,14,41,32,233,37,50,47,169,*76
$GLGSV,3,1,12,65,26,284,39,66,10,332,36,72,16,224,41,73,13,091,31*6E
$GLGSV,3,2,12,74,46,057,34,75,45,331,43,76,01,292,,83,04,021,*63
$GLGSV,3,3,12,84,48,072,,85,38,153,41,,,,34,,,,45*61
$GNGLL,3620.16119,N,12043.82861,E,112730.00,A,D*7C
$GNRMC,112731.00,A,3620.16174,N,12043.82848,E,2.045,351.45,151024,,,D*7C
$GNVTG,351.45,T,,M,2.045,N,3.788,K,D*27
$GNGGA,112731.00,3620.16174,N,12043.82848,E,2,12,0.69,35.9,M,6.0,M,,0000*4B
$GNGSA,A,3,27,16,08,04,09,31,26,07,18,,,,1.29,0.69,1.09*1E
$GNGSA,A,3,75,85,65,72,73,66,,,,,,,1.29,0.69,1.09*1C
$GPGSV,4,1,14,04,45,239,37,07,19,312,38,08,53,215,42,09,36,283,41*7A
$GPGSV,4,2,14,16,56,038,34,18,12,046,23,21,02,181,28,26,31,071,28*72
$GPGSV,4,3,14,27,84,134,38,28,01,131,,31,32,126,38,40,11,255,*7C
$GPGSV,4,4,14,41,32,233,32,50,47,169,*73
$GLGSV,3,1,12,65,26,284,44,66,10,332,31,72,16,224,42,73,13,091,39*68
$GLGSV,3,2,12,74,46,057,29,75,45,331,45,76,01,292,,83,04,021,*69
$GLGSV,3,3,12,84,48,072,,85,38,153,39,,,,40,,,,43*6B
$GNGLL,3620.16174,N,12043.82848,E,112731.00,A,D*7D
$GNRMC,112732.00,A,3620.16229,N,12043.82831,E,2.078,348.24,151024,,,D*7B
$GNVTG,348.24,T,,M,2.078,N,3.848,K,D*25
$GNGGA,112732.00,3620.16229,N,12043.82831,E,2,12,0.69,36.0,M,6.0,M,,0000*47
$GNGSA,A,3,27,16,08,04,09,31,26,07,18,,,,1.29,0.69,1.09*1E
$GNGSA,A,3,75,85,65,72,73,66,,,,,,,1.29,0.69,1.09*1C
$GPGSV,4,1,14,04,45,239,34,07,19,312,37,08,53,215,42,09,36,283,38*78
$GPGSV,4,2,14,16,56,038,33,18,12,046,24,21,02,181,31,26,31,071,28*7A
$GPGSV,4,3,14,27,84,134,39,28,01,131,,31,32,126,41,40,11,255,*73
$GPGSV,4,4,14,41,32,233,32,50,47,169,38*78
$GLGSV,3,1,12,65,26,284,41,66,10,332,32,72,16,224,42,73,13,091,41*61
$GLGSV,3,2,12,74,46,057,34,75,45,331,43,76,01,292,,83,04,021,*63
$GLGSV,3,3,12,84,48,072,,85,38,153,41,,,,40,,,,43*64
$GNGLL,3620.16229,N,12043.82831,E,112732.00,A,D*7B
$GNRMC,112733.00,A,3620.16279,N,12043.82812,E,1.914,345.29,151024,,,D*7E
$GNVTG,345.29,T,,M,1.914,N,3.545,K,D*25
$GNGGA,112733.00,3620.16279,N,12043.82812,E,2,12,0.69,36.2,M,6.0,M,,0000*40
$GNGSA,A,3,27,16,08,04,09,31,26,07,18,,,,1.29,0.69,1.09*1E
$GNGSA,A,3,75,85,65,72,73,66,,,,,,,1.29,0.69,1.09*1C
$GPGSV,4,1,14,04,45,239,37,07,19,312,37,08,53,215,41,09,36,283,38*78
$GPGSV,4,2,14,16,56,038,34,18,12,046,24,21,02,181,32,26,31,071,27*71
$GPGSV,4,3,14,27,84,134,37,28,01,131,,31,32,126,39,40,11,255,*72
$GPGSV,4,4,14,41,32,233,32,50,47,169,37*77
$GLGSV,3,1,12,65,26,284,43,66,10,332,32,72,16,224,37,73,13,091,41*61
$GLGSV,3,2,12,74,46,057,35,75,45,331,42,76,01,292,,83,04,021,*63
$GLGSV,3,3,12,84,48,072,,85,38,153,44,,,,43,,,,46*67
$GNGLL,3620.16279,N,12043.82812,E,112733.00,A,D*7E
$GNRMC,112734.00,A,3620.16329,N,12043.82788,E,1.976,340.64,151024,,,D*79
$GNVTG,340.64,T,,M,1.976,N,3.659,K,D*23
$GNGGA,112734.00,3620.16329,N,12043.82788,E,2,12,0.69,36.3,M,6.0,M,,0000*4E
$GNGSA,A,3,27,16,08,04,09,31,26,07,18,,,,1.29,0.69,1.09*1E
$GNGSA,A,3,75,85,65,72,73,66,,,,,,,1.29,0.69,1.09*1C
$GPGSV,4,1,14,04,45,239,37,07,19,312,41,08,53,215,40,09,36,283,38*78
$GPGSV,4,2,14,16,56,038,34,18,12,046,23,21,02,181,33,26,31,071,33*72
$GPGSV,4,3,14,27,84,134,39,28,01,131,,31,32,126,43,40,11,255,*71
$GPGSV,4,4,14,41,32,233,33,50,47,169,35*74
$GLGSV,3,1,12,65,26,284,44,66,10,332,39,72,16,224,39,73,13,091,40*62
$GLGSV,3,2,12,74,46,057,35,75,45,331,43,76,01,292,,83,04,021,*62
$GLGSV,3,3,12,84,48,072,,85,38,153,37,,,,47,,,,41*60
$GNGLL,3620.16329,N,12043.82788,E,112734.00,A,D*71
$GNRMC,112735.00,A,3620.16382,N,12043.82768,E,1.970,340.50,151024,,,D*76
$GNVTG,340.50,T,,M,1.970,N,3.648,K,D*22
$GNGGA,112735.00,3620.16382,N,12043.82768,E,2,12,0.69,36.2,M,6.0,M,,0000*41
$GNGSA,A,3,27,16,08,04,09,31,26,07,18,,,,1.29,0.69,1.09*1E
$GNGSA,A,3,75,85,65,72,73,66,,,,,,,1.29,0.69,1.09*1C
$GPGSV,4,1,14,04,45,239,39,07,19,312,41,08,53,215,40,09,36,283,38*76
$GPGSV,4,2,14,16,56,038,34,18,12,046,21,21,02,181,31,26,31,071,33*72
$GPGSV,4,3,14,27,84,134,38,28,01,131,,31,32,126,39,40,11,255,*7D
$GPGSV,4,4,14,41,32,233,32,50,47,169,36*76
$GLGSV,3,1,12,65,26,284,45,66,10,332,35,72,16,224,37,73,13,091,39*6F
$GLGSV,3,2,12,74,46,057,37,75,45,331,40,76,01,292,,83,04,021,*63
$GLGSV,3,3,12,84,48,072,,85,38,153,37,,,,48,,,,39*60
$GNGLL,3620.16382,N,12043.82768,E,112735.00,A,D*7F
$GNRMC,112736.00,A,3620.16432,N,12043.82746,E,1.843,340.64,151024,,,D*73
$GNVTG,340.64,T,,M,1.843,N,3.414,K,D*2F
$GNGGA,112736.00,3620.16432,N,12043.82746,E,2,12,0.64,36.2,M,6.0,M,,0000*4F
$GNGSA,A,3,27,16,08,04,09,31,26,07,18,,,,1.17,0.64,0.98*17
$GNGSA,A,3,75,85,65,72,73,66,,,,,,,1.17,0.64,0.98*15
$GPGSV,4,1,14,04,45,239,37,07,19,312,42,08,53,215,42,09,36,283,33*72
$GPGSV,4,2,14,16,56,038,35,18,12,046,22,21,02,180,32,26,31,071,23*73
$GPGSV,4,3,14,27,84,134,38,28,01,131,,31,32,126,42,40,11,255,*71
$GPGSV,4,4,14,41,32,233,32,50,47,169,35*75
$GLGSV,3,1,12,65,26,284,43,66,10,332,35,72,16,224,35,73,13,091,41*64
$GLGSV,3,2,12,74,46,057,37,75,45,331,41,76,01,292,,83,04,021,*62
$GLGSV,3,3,12,84,48,072,,85,38,153,38,,,,47,,,,43*6D
$GNGLL,3620.16432,N,12043.82746,E,112736.00,A,D*7C
$GNRMC,112737.00,A,3620.16475,N,12043.82713,E,1.837,336.69,151024,,,D*7E
$GNVTG,336.69,T,,M,1.837,N,3.403,K,D*26
$GNGGA,112737.00,3620.16475,N,12043.82713,E,2,12,0.64,36.4,M,6.0,M,,0000*4B
$GNGSA,A,3,27,16,08,04,09,31,26,07,18,,,,1.17,0.64,0.98*17
$GNGSA,A,3,75,85,65,72,73,66,,,,,,,1.17,0.64,0.98*15
$GPGSV,4,1,14,04,45,239,34,07,19,312,41,08,53,215,41,09,36,283,39*7B
$GPGSV,4,2,14,16,56,038,34,18,12,046,22,21,02,180,30,26,31,071,26*75
$GPGSV,4,3,14,27,84,134,38,28,01,131,,31,32,126,42,40,11,255,*71
$GPGSV,4,4,14,41,32,233,33,50,47,169,35*74
$GLGSV,3,1,12,65,26,284,45,66,10,332,34,72,16,224,35,73,13,091,38*6D
$GLGSV,3,2,12,74,46,057,38,75,45,331,40,76,01,292,,83,04,021,*6C
$GLGSV,3,3,12,84,48,072,,85,38,153,35,,,,48,,,,42*6E
$GNGLL,3620.16475,N,12043.82713,E,112737.00,A,D*7E
$GNRMC,112738.00,A,3620.16512,N,12043.82671,E,1.799,325.40,151024,,,D*76
$GNVTG,325.40,T,,M,1.799,N,3.332,K,D*21
$GNGGA,112738.00,3620.16512,N,12043.82671,E,2,12,0.64,36.5,M,6.0,M,,0000*40
$GNGSA,A,3,27,16,08,04,09,31,26,07,18,,,,1.17,0.64,0.98*17
$GNGSA,A,3,75,85,65,72,73,66,,,,,,,1.17,0.64,0.98*15
$GPGSV,4,1,14,04,45,239,35,07,19,312,36,08,53,215,38,09,36,283,39*74
$GPGSV,4,2,14,16,56,038,38,18,12,046,20,21,02,180,29,26,31,071,34*70
$GPGSV,4,3,14,27,84,134,37,28,01,131,,31,32,126,38,40,11,255,*73
$GPGSV,4,4,14,41,32,233,31,50,47,169,33*70
$GLGSV,3,1,12,65,26,284,45,66,10,332,40,72,16,224,38,73,13,091,35*6E
$GLGSV,3,2,12,74,46,057,38,75,45,331,26,76,01,292,,83,04,021,*6C
$GLGSV,3,3,12,84,48,072,,85,38,153,45,,,,39,,,,43*6E
$GNGLL,3620.16512,N,12043.82671,E,112738.00,A,D*74
$GNRMC,112739.00,A,3620.16538,N,12043.82620,E,1.712,313.59,151024,,,D*75
$GNVTG,313.59,T,,M,1.712,N,3.171,K,D*2A
$GNGGA,112739.00,3620.16538,N,12043.82620,E,2,12,0.66,36.7,M,6.0,M,,0000*4D
$GNGSA,A,3,27,16,08,04,09,31,26,07,18,,,,1.27,0.66,1.08*1E
$GNGSA,A,3,75,85,65,74,72,73,66,,,,,,1.27,0.66,1.08*1F
$GPGSV,4,1,14,04,45,239,31,07,19,312,36,08,53,215,34,09,36,283,39*7C
$GPGSV,4,2,14,16,56,038,41,18,12,046,18,21,02,180,31,26,31,071,30*78
$GPGSV,4,3,14,27,84,134,37,28,01,131,,31,32,126,42,40,11,255,*7E
$GPGSV,4,4,14,41,32,233,31,50,47,169,32*71
$GLGSV,3,1,12,65,26,284,42,66,10,332,38,72,16,224,31,73,13,091,35*6F
$GLGSV,3,2,12,74,46,058,37,75,45,331,34,76,01,292,,83,04,021,*6F
$GLGSV,3,3,12,84,48,072,,85,38,153,46,,,,38,,,,45*6A
$GNGLL,3620.16538,N,12043.82620,E,112739.00,A,D*79
$GNRMC,112740.00,A,3620.16566,N,12043.82573,E,1.815,307.63,151024,,,D*71
$GNVTG,307.63,T,,M,1.815,N,3.362,K,D*2E
$GNGGA,112740.00,3620.16566,N,12043.82573,E,2,12,0.66,36.6,M,6.0,M,,0000*4C
$GNGSA,A,3,27,16,08,04,09,31,26,07,18,,,,1.27,0.66,1.09*1F
$GNGSA,A,3,75,85,65,74,72,73,66,,,,,,1.27,0.66,1.09*1E
$GPGSV,4,1,14,04,45,239,34,07,19,312,35,08,53,215,33,09,36,283,38*7C
$GPGSV,4,2,14,16,56,038,42,18,12,046,17,21,02,180,30,26,31,071,28*7C
$GPGSV,4,3,14,27,84,134,38,28,01,131,,31,32,126,44,40,11,255,*77
$GPGSV,4,4,14,41,32,233,33,50,47,169,33*72
$GLGSV,3,1,12,65,26,284,39,66,10,332,36,72,16,224,30,73,13,091,29*61
$GLGSV,3,2,12,74,46,058,34,75,45,331,38,76,01,292,,83,04,021,*60
$GLGSV,3,3,12,84,48,072,,85,38,153,44,,,,36,,,,45*66
$GNGLL,3620.16566,N,12043.82573,E,112740.00,A,D*79
$GNRMC,112741.00,A,3620.16596,N,12043.82540,E,1.441,310.18,151024,,,D*78
$GNVTG,310.18,T,,M,1.441,N,2.668,K,D*27
$GNGGA,112741.00,3620.16596,N,12043.82540,E,2,12,0.66,36.7,M,6.0,M,,0000*43
$GNGSA,A,3,27,16,08,04,09,31,26,07,18,,,,1.27,0.66,1.09*1F
$GNGSA,A,3,75,85,65,74,72,73,66,,,,,,1.27,0.66,1.09*1E
$GPGSV,4,1,14,04,45,239,28,07,19,312,35,08,53,215,36,09,36,283,37*7B
$GPGSV,4,2,14,16,56,038,42,18,12,046,17,21,02,180,31,26,31,072,27*71
$GPGSV,4,3,14,27,84,134,38,28,01,131,,31,32,126,42,40,11,255,*71
$GPGSV,4,4,14,41,32,233,32,50,47,169,32*72
$GLGSV,3,1,12,65,26,284,39,66,10,332,36,72,16,224,35,73,13,091,29*64
$GLGSV,3,2,12,74,46,058,35,75,45,331,37,76,01,292,,83,04,021,*6E
$GLGSV,3,3,12,84,48,072,29,85,38,153,44,,,,43,,,,44*6E
$GNGLL,3620.16596,N,12043.82540,E,112741.00,A,D*77
$GNRMC,112742.00,A,3620.16625,N,12043.82510,E,1.442,311.54,151024,,,D*7F
$GNVTG,311.54,T,,M,1.442,N,2.671,K,D*25
$GNGGA,112742.00,3620.16625,N,12043.82510,E,2,12,0.66,36.7,M,6.0,M,,0000*4E
$GNGSA,A,3,27,16,08,04,09,31,26,07,18,,,,1.27,0.66,1.09*1F
$GNGSA,A,3,75,85,65,74,72,73,66,,,,,,1.27,0.66,1.09*1E
$GPGSV,4,1,14,04,45,239,30,07,19,312,36,08,53,215,37,09,36,283,34*73
$GPGSV,4,2,14,16,56,038,41,18,12,046,17,21,02,180,29,26,31,072,24*78
$GPGSV,4,3,14,27,84,128,38,28,01,131,,31,32,126,41,40,11,255,*7F
$GPGSV,4,4,14,41,32,233,30,50,47,169,30*72
$GLGSV,3,1,12,65,26,284,43,66,10,332,37,72,16,224,29,73,13,091,38*65
$GLGSV,3,2,12,74,46,058,37,75,45,331,27,76,01,292,,83,04,021,*6D
$GLGSV,3,3,12,84,48,072,27,85,38,153,45,,,,36,,,,45*62
$GNGLL,3620.16625,N,12043.82510,E,112742.00,A,D*7A
$GNRMC,112743.00,A,3620.16663,N,12043.82482,E,1.703,321.00,151024,,,D*72
$GNVTG,321.00,T,,M,1.703,N,3.153,K,D*27
$GNGGA,112743.00,3620.16663,N,12043.82482,E,2,12,0.66,36.7,M,6.0,M,,0000*47
$GNGSA,A,3,27,16,08,04,09,31,26,07,18,,,,1.27,0.66,1.09*1F
$GNGSA,A,3,75,85,65,74,72,73,66,,,,,,1.27,0.66,1.09*1E
$GPGSV,4,1,14,04,45,239,37,07,19,312,32,08,53,215,41,09,36,283,39*7C
$GPGSV,4,2,14,16,56,038,39,18,12,046,15,21,02,180,31,26,31,072,25*7D
$GPGSV,4,3,14,27,84,128,37,28,01,131,,31,32,126,40,40,11,255,*71
$GPGSV,4,4,14,41,32,233,,50,47,169,*72
$GLGSV,3,1,12,65,26,284,45,66,10,332,34,72,16,224,35,73,13,091,40*62
$GLGSV,3,2,12,74,46,058,38,75,45,331,40,76,01,292,,83,04,021,*63
$GLGSV,3,3,12,84,48,072,27,85,38,153,42,,,,47,,,,42*64
$GNGLL,3620.16663,N,12043.82482,E,112743.00,A,D*73
$GNRMC,112744.00,A,3620.16712,N,12043.82446,E,2.206,322.93,151024,,,D*70
$GNVTG,322.93,T,,M,2.206,N,4.086,K,D*23
$GNGGA,112744.00,3620.16712,N,12043.82446,E,2,12,0.66,36.6,M,6.0,M,,0000*4E
$GNGSA,A,3,27,16,08,04,09,31,26,07,18,,,,1.27,0.66,1.09*1F
$GNGSA,A,3,75,85,65,74,72,73,66,,,,,,1.27,0.66,1.09*1E
$GPGSV,4,1,14,04,45,239,40,07,19,312,40,08,53,215,39,09,36,283,38*77
$GPGSV,4,2,14,16,56,038,36,18,12,046,15,21,02,180,28,26,31,072,24*7B
$GPGSV,4,3,14,27,84,128,38,28,01,131,,31,32,126,41,40,11,255,*7F
$GPGSV,4,4,14,41,32,233,,50,47,169,*72
$GLGSV,3,1,12,65,26,284,45,66,10,332,34,72,16,224,35,73,13,091,30*65
$GLGSV,3,2,12,74,46,058,38,75,45,331,39,76,01,292,,83,04,021,*6D
$GLGSV,3,3,12,84,48,072,29,85,38,153,36,,,,44,,,,44*6C
$GNGLL,3620.16712,N,12043.82446,E,112744.00,A,D*7B
$GNRMC,112745.00,A,3620.16761,N,12043.82403,E,2.223,323.03,151024,,,D*7B
$GNVTG,323.03,T,,M,2.223,N,4.116,K,D*24
$GNGGA,112745.00,3620.16761,N,12043.82403,E,2,12,0.66,36.6,M,6.0,M,,0000*4A
$GNGSA,A,3,27,16,08,04,09,31,26,07,18,,,,1.27,0.66,1.09*1F
$GNGSA,A,3,75,85,65,74,72,73,66,,,,,,1.27,0.66,1.09*1E
$GPGSV,4,1,14,04,45,239,36,07,19,312,37,08,53,215,40,09,36,283,40*77
$GPGSV,4,2,14,16,56,038,36,18,12,046,15,21,02,180,24,26,31,072,24*77
$GPGSV,4,3,14,27,84,128,37,28,01,131,,31,32,126,40,40,11,255,*71
$GPGSV,4,4,14,41,32,233,,50,47,169,*72
$GLGSV,3,1,12,65,26,284,44,66,10,332,28,72,16,224,41,73,13,091,31*6B
$GLGSV,3,2,12,74,46,058,38,75,45,331,38,76,01,292,,83,04,021,*6C
$GLGSV,3,3,12,84,48,072,30,85,38,153,39,,,,46,,,,45*68
