$GNRMC,121350.00,A,3620.15727,N,12043.84508,E,0.014,,151024,,,D*6D
$GNVTG,,T,,M,0.014,N,0.027,K,D*38
$GNGGA,121350.00,3620.15727,N,12043.84508,E,2,12,1.30,27.4,M,6.0,M,,0000*47
$GNGSA,A,3,08,27,07,09,04,21,31,26,02,,,,2.19,1.30,1.76*14
$GNGSA,A,3,85,75,65,86,76,,,,,,,,2.19,1.30,1.76*17
$GPGSV,4,1,15,02,09,183,26,04,29,220,36,07,36,314,35,08,75,242,38*70
$GPGSV,4,2,15,09,32,257,36,16,43,063,,18,02,031,,21,21,173,36*7A
$GPGSV,4,3,15,26,17,088,16,27,67,041,27,30,07,315,20,31,14,138,12*74
$GPGSV,4,4,15,40,11,255,,41,32,233,32,50,47,169,31*46
$GLGSV,3,1,10,65,15,261,27,66,15,310,07,73,00,110,,74,35,088,25*66
$GLGSV,3,2,10,75,57,005,22,76,15,309,19,84,37,040,,85,63,133,29*69
$GLGSV,3,3,10,86,19,183,20,,,,32*5B
$GNGLL,3620.15727,N,12043.84508,E,121350.00,A,D*72
$GNRMC,121351.00,A,3620.15724,N,12043.84509,E,0.062,,151024,,,D*6F
$GNVTG,,T,,M,0.062,N,0.114,K,D*38
$GNGGA,121351.00,3620.15724,N,12043.84509,E,2,12,1.30,27.3,M,6.0,M,,0000*43
$GNGSA,A,3,08,27,07,09,04,21,31,26,02,,,,2.19,1.30,1.76*14
$GNGSA,A,3,85,75,74,65,86,76,,,,,,,2.19,1.30,1.76*14
$GPGSV,4,1,15,02,09,183,27,04,29,220,36,07,36,314,34,08,75,242,41*7E
$GPGSV,4,2,15,09,32,257,28,16,43,063,,18,02,031,,21,21,173,39*7A
$GPGSV,4,3,15,26,17,088,16,27,67,041,28,30,07,315,21,31,14,138,13*7B
$GPGSV,4,4,15,40,11,255,,41,32,233,36,50,47,169,30*43
$GLGSV,3,1,10,65,15,261,27,66,15,310,09,73,00,110,,74,35,088,24*69
$GLGSV,3,2,10,75,57,005,23,76,15,309,18,84,37,040,,85,63,133,30*61
$GLGSV,3,3,10,86,19,183,19,,,,32*51
$GNGLL,3620.15724,N,12043.84509,E,121351.00,A,D*71
$GNRMC,121352.00,A,3620.15722,N,12043.84510,E,0.098,,151024,,,D*67
$GNVTG,,T,,M,0.098,N,0.182,K,D*32
$GNGGA,121352.00,3620.15722,N,12043.84510,E,2,12,1.30,27.2,M,6.0,M,,0000*4F
$GNGSA,A,3,08,27,07,09,04,21,31,26,02,,,,2.19,1.30,1.76*14
$GNGSA,A,3,85,75,65,86,76,66,,,,,,,2.19,1.30,1.76*17
$GPGSV,4,1,15,02,09,183,26,04,29,220,36,07,36,314,35,08,75,242,41*7E
$GPGSV,4,2,15,09,32,257,30,16,43,063,,18,02,031,,21,21,173,39*73
$GPGSV,4,3,15,26,17,088,16,27,67,041,30,30,07,315,23,31,14,138,13*70
$GPGSV,4,4,15,40,11,255,,41,32,233,40,50,47,169,29*4A
$GLGSV,3,1,10,65,15,261,27,66,15,310,11,73,00,110,,74,35,088,*66
$GLGSV,3,2,10,75,57,005,23,76,15,309,18,84,37,040,,85,63,133,30*61
$GLGSV,3,3,10,86,19,183,22,,,,32*59
$GNGLL,3620.15722,N,12043.84510,E,121352.00,A,D*7C
$GNRMC,121353.00,A,3620.15722,N,12043.84508,E,0.130,,151024,,,D*6C
$GNVTG,,T,,M,0.130,N,0.240,K,D*3C
$GNGGA,121353.00,3620.15722,N,12043.84508,E,2,12,0.87,27.1,M,6.0,M,,0000*49
$GNGSA,A,3,08,27,07,09,04,21,31,26,02,,,,1.47,0.87,1.18*19
$GNGSA,A,3,85,75,65,86,76,66,,,,,,,1.47,0.87,1.18*1A
$GPGSV,4,1,15,02,09,183,32,04,29,220,34,07,36,314,35,08,75,242,42*7A
$GPGSV,4,2,15,09,32,257,34,16,43,063,18,18,02,031,,21,21,173,39*7E
$GPGSV,4,3,15,26,17,088,16,27,67,041,29,30,07,315,23,31,14,138,13*78
$GPGSV,4,4,15,40,11,255,,41,32,233,35,50,47,169,35*45
$GLGSV,3,1,10,65,15,261,27,66,15,310,18,73,00,110,,74,35,088,*6F
$GLGSV,3,2,10,75,57,005,23,76,15,309,20,84,37,040,,85,63,133,30*6A
$GLGSV,3,3,10,86,19,183,22,,,,31*5A
$GNGLL,3620.15722,N,12043.84508,E,121353.00,A,D*74
$GNRMC,121354.00,A,3620.15721,N,12043.84504,E,0.102,,151024,,,D*65
$GNVTG,,T,,M,0.102,N,0.190,K,D*33
$GNGGA,121354.00,3620.15721,N,12043.84504,E,2,12,0.87,27.0,M,6.0,M,,0000*40
$GNGSA,A,3,08,27,07,09,04,21,31,26,02,,,,1.47,0.87,1.18*19
$GNGSA,A,3,85,75,65,86,76,66,,,,,,,1.47,0.87,1.18*1A
$GPGSV,4,1,15,02,09,183,27,04,29,220,38,07,36,314,39,08,75,242,40*7C
$GPGSV,4,2,15,09,32,257,36,16,43,063,16,18,02,031,,21,21,173,37*7C
$GPGSV,4,3,15,26,17,088,18,27,67,041,29,30,07,315,21,31,14,138,12*75
$GPGSV,4,4,15,40,11,255,,41,32,233,36,50,47,169,29*4B
$GLGSV,3,1,10,65,15,261,27,66,15,310,20,73,00,110,,74,35,088,*64
$GLGSV,3,2,10,75,57,005,21,76,15,309,23,84,37,040,,85,63,133,29*63
$GLGSV,3,3,10,86,19,183,29,,,,31*51
$GNGLL,3620.15721,N,12043.84504,E,121354.00,A,D*7C
$GNRMC,121355.00,A,3620.15720,N,12043.84502,E,0.062,,151024,,,D*64
$GNVTG,,T,,M,0.062,N,0.115,K,D*39
$GNGGA,121355.00,3620.15720,N,12043.84502,E,2,12,0.87,26.9,M,6.0,M,,0000*4E
$GNGSA,A,3,08,27,07,09,04,21,31,26,02,,,,1.47,0.87,1.18*19
$GNGSA,A,3,85,75,65,86,76,66,,,,,,,1.47,0.87,1.18*1A
$GPGSV,4,1,15,02,09,183,36,04,29,220,36,07,36,314,41,08,75,242,40*7D
$GPGSV,4,2,15,09,32,257,38,16,43,063,16,18,02,031,,21,21,173,30*75
$GPGSV,4,3,15,26,17,088,21,27,67,041,28,30,07,315,21,31,14,138,12*7E
$GPGSV,4,4,15,40,11,255,,41,32,233,36,50,47,169,29*4B
$GLGSV,3,1,10,65,15,261,31,66,15,310,18,73,00,110,,74,35,088,*68
$GLGSV,3,2,10,75,57,005,20,76,15,309,21,84,37,040,,85,63,133,33*6B
$GLGSV,3,3,10,86,19,183,34,,,,30*5C
$GNGLL,3620.15720,N,12043.84502,E,121355.00,A,D*7A
$GNRMC,121356.00,A,3620.15720,N,12043.84508,E,0.074,,151024,,,D*6A
$GNVTG,,T,,M,0.074,N,0.137,K,D*3E
$GNGGA,121356.00,3620.15720,N,12043.84508,E,2,12,0.87,26.8,M,6.0,M,,0000*46
$GNGSA,A,3,08,27,07,09,04,21,31,26,02,,,,1.47,0.87,1.18*19
$GNGSA,A,3,85,75,65,86,76,66,,,,,,,1.47,0.87,1.18*1A
$GPGSV,4,1,15,02,09,183,36,04,29,220,33,07,36,314,41,08,75,242,41*79
$GPGSV,4,2,15,09,32,257,38,16,43,063,15,18,02,031,,21,21,173,32*74
$GPGSV,4,3,15,26,17,088,21,27,67,041,28,30,07,315,22,31,14,138,08*76
$GPGSV,4,4,15,40,11,255,,41,32,233,35,50,47,169,32*42
$GLGSV,3,1,10,65,15,261,26,66,15,310,14,73,00,110,,74,35,088,19*6A
$GLGSV,3,2,10,75,57,005,20,76,15,309,23,84,37,040,,85,63,133,33*69
$GLGSV,3,3,10,86,19,183,34,,,,31*5D
$GNGLL,3620.15720,N,12043.84508,E,121356.00,A,D*73
$GNRMC,121357.00,A,3620.15725,N,12043.84518,E,0.029,,151024,,,D*67
$GNVTG,,T,,M,0.029,N,0.054,K,D*32
$GNGGA,121357.00,3620.15725,N,12043.84518,E,2,12,0.81,26.5,M,6.0,M,,0000*48
$GNGSA,A,3,08,27,16,07,09,04,21,31,26,02,,,1.42,0.81,1.17*12
$GNGSA,A,3,85,75,65,86,76,66,,,,,,,1.42,0.81,1.17*16
$GPGSV,4,1,15,02,09,183,36,04,29,220,28,07,36,314,40,08,75,242,41*72
$GPGSV,4,2,15,09,32,257,39,16,43,063,14,18,02,031,,21,21,173,28*7F
$GPGSV,4,3,15,26,17,088,22,27,67,041,28,30,07,315,23,31,14,138,09*75
$GPGSV,4,4,15,40,11,255,,41,32,233,35,50,47,169,32*42
$GLGSV,3,1,10,65,14,260,26,66,15,310,14,73,00,110,,74,35,088,19*6A
$GLGSV,3,2,10,75,57,005,21,76,15,309,23,84,37,040,,85,63,133,30*6B
$GLGSV,3,3,10,86,19,183,35,,,,31*5C
$GNGLL,3620.15725,N,12043.84518,E,121357.00,A,D*76
$GNRMC,121358.00,A,3620.15728,N,12043.84530,E,0.023,,151024,,,D*65
$GNVTG,,T,,M,0.023,N,0.043,K,D*3E
$GNGGA,121358.00,3620.15728,N,12043.84530,E,2,12,0.81,26.3,M,6.0,M,,0000*46
$GNGSA,A,3,08,27,16,07,09,04,21,26,02,,,,1.42,0.81,1.17*10
$GNGSA,A,3,85,75,65,86,76,66,,,,,,,1.42,0.81,1.17*16
$GPGSV,4,1,15,02,09,183,35,04,29,220,23,07,36,314,40,08,75,242,40*7B
$GPGSV,4,2,15,09,32,257,36,16,43,063,12,18,02,031,,21,21,173,40*78
$GPGSV,4,3,15,26,17,088,20,27,67,041,27,30,07,315,24,31,14,138,04*72
$GPGSV,4,4,15,40,11,255,,41,32,233,37,50,47,169,31*43
$GLGSV,3,1,10,65,14,260,30,66,15,310,15,73,00,110,,74,35,088,16*63
$GLGSV,3,2,10,75,57,005,19,76,15,309,23,84,37,040,,85,63,133,34*64
$GLGSV,3,3,10,86,19,183,36,,,,33*5D
$GNGLL,3620.15728,N,12043.84530,E,121358.00,A,D*7E
$GNRMC,121359.00,A,3620.15727,N,12043.84538,E,0.294,,151024,,,D*6D
$GNVTG,,T,,M,0.294,N,0.545,K,D*33
$GNGGA,121359.00,3620.15727,N,12043.84538,E,2,12,0.81,26.3,M,6.0,M,,0000*40
$GNGSA,A,3,08,27,16,07,09,04,21,31,26,02,,,1.42,0.81,1.17*12
$GNGSA,A,3,85,75,65,86,76,66,,,,,,,1.42,0.81,1.17*16
$GPGSV,4,1,15,02,09,183,31,04,29,220,38,07,36,314,41,08,75,242,40*74
$GPGSV,4,2,15,09,32,257,33,16,43,063,12,18,02,031,,21,21,173,32*78
$GPGSV,4,3,15,26,17,088,18,27,67,041,27,30,07,315,25,31,14,138,12*7F
$GPGSV,4,4,15,40,11,255,,41,32,233,44,50,47,169,32*44
$GLGSV,3,1,10,65,14,260,34,66,15,310,18,73,00,110,,74,35,088,14*68
$GLGSV,3,2,10,75,57,005,18,76,15,309,25,84,37,040,,85,63,133,42*62
$GLGSV,3,3,10,86,19,183,40,,,,47*5F
$GNGLL,3620.15727,N,12043.84538,E,121359.00,A,D*78
$GNRMC,121400.00,A,3620.15731,N,12043.84546,E,0.144,,151024,,,D*66
$GNVTG,,T,,M,0.144,N,0.267,K,D*3A
$GNGGA,121400.00,3620.15731,N,12043.84546,E,2,12,0.81,26.1,M,6.0,M,,0000*47
$GNGSA,A,3,08,27,16,07,09,04,21,31,26,02,,,1.42,0.81,1.17*12
$GNGSA,A,3,85,75,74,65,86,76,66,,,,,,1.42,0.81,1.17*15
$GPGSV,4,1,15,02,09,183,31,04,29,220,32,07,36,314,41,08,75,242,39*70
$GPGSV,4,2,15,09,32,257,42,16,43,063,15,18,02,031,,21,21,173,33*78
$GPGSV,4,3,15,26,17,088,19,27,67,041,28,30,07,315,24,31,14,138,17*75
$GPGSV,4,4,15,40,11,255,,41,32,233,37,50,47,169,27*44
$GLGSV,3,1,10,65,14,260,36,66,15,310,20,73,00,110,,74,35,088,14*61
$GLGSV,3,2,10,75,57,005,18,76,15,309,25,84,37,040,,85,63,133,41*61
$GLGSV,3,3,10,86,19,183,38,,,,35*55
$GNGLL,3620.15731,N,12043.84546,E,121400.00,A,D*7D
$GNRMC,121401.00,A,3620.15731,N,12043.84550,E,0.152,,151024,,,D*67
$GNVTG,,T,,M,0.152,N,0.281,K,D*35
$GNGGA,121401.00,3620.15731,N,12043.84550,E,2,12,0.72,26.3,M,6.0,M,,0000*4F
$GNGSA,A,3,08,27,16,07,09,04,21,31,26,02,,,1.27,0.72,1.04*1F
$GNGSA,A,3,85,75,65,86,76,66,,,,,,,1.27,0.72,1.04*1B
$GPGSV,4,1,15,02,09,183,30,04,29,220,27,07,36,314,39,08,75,242,38*7B
$GPGSV,4,2,15,09,32,257,32,16,43,063,17,18,02,031,,21,21,173,36*78
$GPGSV,4,3,15,26,17,088,21,27,67,041,27,30,07,315,23,31,14,138,21*73
$GPGSV,4,4,15,40,11,255,36,41,32,233,30,50,47,169,36*46
$GLGSV,3,1,10,65,14,260,31,66,15,310,18,73,00,110,,74,35,088,*68
$GLGSV,3,2,10,75,57,005,29,76,15,309,31,84,37,040,,85,63,133,33*63
$GLGSV,3,3,10,86,19,183,36,,,,37*59
$GNGLL,3620.15731,N,12043.84550,E,121401.00,A,D*7B
$GNRMC,121402.00,A,3620.15716,N,12043.84537,E,0.303,,151024,,,D*66
$GNVTG,,T,,M,0.303,N,0.561,K,D*3A
$GNGGA,121402.00,3620.15716,N,12043.84537,E,2,12,0.68,27.0,M,6.0,M,,0000*41
$GNGSA,A,3,08,27,16,07,09,04,21,31,26,02,,,1.22,0.68,1.01*14
$GNGSA,A,3,85,75,65,86,76,66,,,,,,,1.22,0.68,1.01*10
$GPGSV,4,1,15,02,09,183,29,04,29,220,26,07,36,314,37,08,75,242,38*7C
$GPGSV,4,2,15,09,32,257,38,16,43,063,18,18,02,031,,21,21,173,34*7F
$GPGSV,4,3,15,26,17,088,22,27,67,041,27,30,07,315,22,31,14,138,16*75
$GPGSV,4,4,15,40,11,255,36,41,32,233,35,50,47,169,35*40
$GLGSV,3,1,10,65,14,260,36,66,15,310,33,73,00,110,,74,35,088,*66
$GLGSV,3,2,10,75,57,005,29,76,15,309,27,84,37,040,,85,63,133,44*64
$GLGSV,3,3,10,86,19,183,24,,,,42*58
$GNGLL,3620.15716,N,12043.84537,E,121402.00,A,D*7C
$GNRMC,121403.00,A,3620.15715,N,12043.84532,E,0.395,,151024,,,D*6E
$GNVTG,,T,,M,0.395,N,0.731,K,D*32
$GNGGA,121403.00,3620.15715,N,12043.84532,E,2,12,0.72,27.2,M,6.0,M,,0000*4F
$GNGSA,A,3,08,27,16,07,09,04,21,31,26,02,,,1.29,0.72,1.07*12
$GNGSA,A,3,85,75,65,86,76,66,,,,,,,1.29,0.72,1.07*16
$GPGSV,4,1,15,02,09,183,30,04,29,220,37,07,36,314,34,08,75,242,38*77
$GPGSV,4,2,15,09,32,257,32,16,43,063,16,18,02,031,,21,21,173,34*7B
$GPGSV,4,3,15,26,17,088,20,27,67,041,31,30,07,315,22,31,14,138,17*71
$GPGSV,4,4,15,40,11,255,29,41,32,233,37,50,47,169,35*4C
$GLGSV,3,1,10,65,14,260,40,66,15,310,27,73,00,110,,74,35,088,20*60
$GLGSV,3,2,10,75,57,005,29,76,15,309,32,84,37,040,,85,63,133,45*61
$GLGSV,3,3,10,86,19,183,29,,,,41*56
$GNGLL,3620.15715,N,12043.84532,E,121403.00,A,D*7B
$GNRMC,121404.00,A,3620.15719,N,12043.84523,E,0.756,349.08,151024,,,D*76
$GNVTG,349.08,T,,M,0.756,N,1.401,K,D*20
$GNGGA,121404.00,3620.15719,N,12043.84523,E,2,12,0.65,27.5,M,6.0,M,,0000*45
$GNGSA,A,3,08,27,16,07,09,04,21,31,26,02,,,1.14,0.65,0.94*11
$GNGSA,A,3,85,75,65,86,76,66,,,,,,,1.14,0.65,0.94*15
$GPGSV,4,1,15,02,09,183,34,04,29,220,33,07,36,314,35,08,75,242,43*7A
$GPGSV,4,2,15,09,32,257,41,16,43,063,17,18,02,031,,21,21,173,31*7B
$GPGSV,4,3,15,26,17,088,20,27,67,041,31,30,07,315,21,31,14,138,17*72
$GPGSV,4,4,15,40,11,255,33,41,32,233,41,50,47,169,32*41
$GLGSV,3,1,10,65,14,260,34,66,15,310,25,73,00,110,,74,35,088,19*6B
$GLGSV,3,2,10,75,57,005,29,76,15,309,27,84,37,040,,85,63,133,42*62
$GLGSV,3,3,10,86,19,183,36,,,,43*5A
$GNGLL,3620.15719,N,12043.84523,E,121404.00,A,D*70
$GNRMC,121405.00,A,3620.15712,N,12043.84498,E,0.865,286.22,151024,,,D*78
$GNVTG,286.22,T,,M,0.865,N,1.601,K,D*27
$GNGGA,121405.00,3620.15712,N,12043.84498,E,2,12,0.67,27.9,M,6.0,M,,0000*40
$GNGSA,A,3,08,27,16,07,09,04,21,26,02,,,,1.19,0.67,0.98*10
$GNGSA,A,3,85,75,65,86,76,66,,,,,,,1.19,0.67,0.98*16
$GPGSV,4,1,15,02,09,183,31,04,29,220,31,07,36,314,39,08,75,242,43*71
$GPGSV,4,2,15,09,32,257,34,16,43,063,17,18,02,031,,21,21,173,34*7C
$GPGSV,4,3,15,26,17,088,20,27,67,041,34,30,07,315,20,31,14,138,16*77
$GPGSV,4,4,15,40,11,255,36,41,32,233,37,50,47,169,32*45
$GLGSV,3,1,09,65,14,260,35,66,15,310,24,74,35,088,17,75,57,005,33*6C
$GLGSV,3,2,09,76,15,309,32,84,37,040,,85,63,133,41,86,19,183,37*6B
$GLGSV,3,3,09,,,,41*69
$GNGLL,3620.15712,N,12043.84498,E,121405.00,A,D*7B
$GNRMC,121406.00,A,3620.15723,N,12043.84490,E,0.851,277.32,151024,,,D*79
$GNVTG,277.32,T,,M,0.851,N,1.575,K,D*2F
$GNGGA,121406.00,3620.15723,N,12043.84490,E,2,12,0.73,28.0,M,6.0,M,,0000*4A
$GNGSA,A,3,08,27,07,09,04,21,31,26,02,,,,1.24,0.73,1.01*1F
$GNGSA,A,3,85,75,74,65,86,76,66,,,,,,1.24,0.73,1.01*1F
$GPGSV,4,1,15,02,09,183,26,04,29,220,42,07,36,314,39,08,75,242,32*75
$GPGSV,4,2,15,09,32,257,41,16,43,063,23,18,02,031,,21,21,173,27*7B
$GPGSV,4,3,15,26,17,088,18,27,67,041,37,30,07,315,21,31,14,138,16*7E
$GPGSV,4,4,15,40,11,255,34,41,32,233,36,50,47,169,35*41
$GLGSV,3,1,09,65,14,260,35,66,15,310,25,74,35,089,17,75,57,005,37*68
$GLGSV,3,2,09,76,15,309,26,84,37,040,,85,63,133,46,86,19,183,38*66
$GLGSV,3,3,09,,,,43*6B
$GNGLL,3620.15723,N,12043.84490,E,121406.00,A,D*72
$GNRMC,121407.00,A,3620.15711,N,12043.84463,E,1.106,248.63,151024,,,D*77
$GNVTG,248.63,T,,M,1.106,N,2.048,K,D*25
$GNGGA,121407.00,3620.15711,N,12043.84463,E,2,12,0.69,28.4,M,6.0,M,,0000*49
$GNGSA,A,3,08,27,07,09,04,21,31,26,02,,,,1.17,0.69,0.94*19
$GNGSA,A,3,85,75,74,65,86,76,66,,,,,,1.17,0.69,0.94*19
$GPGSV,4,1,15,02,09,183,31,04,29,220,37,07,36,314,35,08,75,242,42*7A
$GPGSV,4,2,15,09,32,257,37,16,43,063,20,18,02,031,,21,21,173,34*7B
$GPGSV,4,3,15,26,17,088,18,27,67,041,41,30,07,315,20,31,14,138,17*7F
$GPGSV,4,4,15,40,11,255,33,41,32,233,40,50,47,169,34*46
$GLGSV,3,1,09,65,14,260,31,66,15,310,23,74,35,089,16,75,57,006,35*6A
$GLGSV,3,2,09,76,15,309,26,84,37,040,,85,63,133,46,86,19,183,41*68
$GLGSV,3,3,09,,,,44*6C
$GNGLL,3620.15711,N,12043.84463,E,121407.00,A,D*7E
$GNRMC,121408.00,A,3620.15715,N,12043.84476,E,0.996,234.58,151024,,,D*7B
$GNVTG,234.58,T,,M,0.996,N,1.844,K,D*21
$GNGGA,121408.00,3620.15715,N,12043.84476,E,2,12,0.69,28.0,M,6.0,M,,0000*42
$GNGSA,A,3,08,27,07,09,04,21,31,26,02,,,,1.17,0.69,0.94*19
$GNGSA,A,3,85,75,74,65,86,76,66,,,,,,1.17,0.69,0.94*19
$GPGSV,4,1,15,02,09,183,32,04,29,220,32,07,36,314,36,08,75,242,39*73
$GPGSV,4,2,15,09,32,257,37,16,43,063,20,18,02,031,,21,21,173,35*7A
$GPGSV,4,3,15,26,17,088,15,27,67,041,43,30,07,315,,31,14,138,19*7C
$GPGSV,4,4,15,40,11,255,29,41,32,233,40,50,47,169,35*4C
$GLGSV,3,1,09,65,14,260,29,66,15,310,24,74,35,089,14,75,57,006,40*64
$GLGSV,3,2,09,76,15,309,26,84,37,040,,85,63,133,46,86,19,183,40*69
$GLGSV,3,3,09,,,,43*6B
$GNGLL,3620.15715,N,12043.84476,E,121408.00,A,D*71
$GNRMC,121409.00,A,3620.15712,N,12043.84484,E,0.795,229.39,151024,,,D*76
$GNVTG,229.39,T,,M,0.795,N,1.473,K,D*2F
$GNGGA,121409.00,3620.15712,N,12043.84484,E,2,12,0.69,27.6,M,6.0,M,,0000*40
$GNGSA,A,3,08,27,16,07,09,04,21,31,26,02,,,1.17,0.69,0.94*1E
$GNGSA,A,3,85,75,65,86,76,66,,,,,,,1.17,0.69,0.94*1A
$GPGSV,4,1,15,02,09,183,32,04,29,220,38,07,36,314,29,08,75,242,38*76
$GPGSV,4,2,15,09,32,257,41,16,43,063,21,18,02,031,,21,21,173,33*7C
$GPGSV,4,3,15,26,17,088,16,27,67,041,44,30,07,315,,31,14,138,19*78
$GPGSV,4,4,15,40,11,255,33,41,32,233,39,50,47,169,36*4A
$GLGSV,3,1,09,65,14,260,34,66,15,310,32,74,35,089,,75,57,006,42*68
$GLGSV,3,2,09,76,15,309,31,84,37,040,,85,63,133,42,86,19,183,39*65
$GLGSV,3,3,09,,,,44*6C
$GNGLL,3620.15712,N,12043.84484,E,121409.00,A,D*7A
$GNRMC,121410.00,A,3620.15698,N,12043.84471,E,0.978,230.09,151024,,,D*71
$GNVTG,230.09,T,,M,0.978,N,1.811,K,D*21
$GNGGA,121410.00,3620.15698,N,12043.84471,E,2,12,0.86,27.7,M,6.0,M,,0000*41
$GNGSA,A,3,08,27,16,07,09,04,21,31,02,,,,1.40,0.86,1.10*14
$GNGSA,A,3,85,75,65,86,76,66,,,,,,,1.40,0.86,1.10*14
$GPGSV,4,1,15,02,09,183,36,04,29,220,36,07,36,314,33,08,75,242,37*78
$GPGSV,4,2,15,09,32,257,36,16,43,063,22,18,02,031,,21,21,173,41*7A
$GPGSV,4,3,15,26,17,088,20,27,67,041,43,30,07,315,,31,14,138,20*70
$GPGSV,4,4,15,40,11,255,29,41,32,233,34,50,47,169,34*4E
$GLGSV,3,1,09,65,14,260,30,66,15,310,25,74,35,089,20,75,57,006,37*6A
$GLGSV,3,2,09,76,15,309,30,84,37,040,,85,63,133,44,86,19,183,41*6D
$GLGSV,3,3,09,,,,40*68
$GNGLL,3620.15698,N,12043.84471,E,121410.00,A,D*7B
$GNRMC,121411.00,A,3620.15678,N,12043.84461,E,1.155,217.57,151024,,,D*77
$GNVTG,217.57,T,,M,1.155,N,2.139,K,D*29
$GNGGA,121411.00,3620.15678,N,12043.84461,E,2,12,0.86,27.7,M,6.0,M,,0000*4F
$GNGSA,A,3,08,27,16,07,09,04,21,31,02,,,,1.40,0.86,1.10*14
$GNGSA,A,3,85,75,65,86,76,66,,,,,,,1.40,0.86,1.10*14
$GPGSV,4,1,15,02,09,183,33,04,29,220,37,07,36,314,36,08,75,242,42*7B
$GPGSV,4,2,15,09,32,257,39,16,43,063,23,18,02,031,,21,21,173,35*77
$GPGSV,4,3,15,26,17,088,19,27,67,041,42,30,07,315,,31,14,138,20*7B
$GPGSV,4,4,15,40,11,255,36,41,32,233,40,50,47,169,36*41
$GLGSV,3,1,09,65,14,260,36,66,15,310,26,74,35,089,20,75,57,006,40*6F
$GLGSV,3,2,09,76,15,309,25,84,37,040,,85,63,133,46,86,19,183,41*6B
$GLGSV,3,3,09,,,,43*6B
$GNGLL,3620.15678,N,12043.84461,E,121411.00,A,D*75
$GNRMC,121412.00,A,3620.15651,N,12043.84497,E,1.002,218.73,151024,,,D*7C
$GNVTG,218.73,T,,M,1.002,N,1.855,K,D*23
$GNGGA,121412.00,3620.15651,N,12043.84497,E,2,12,0.86,27.8,M,6.0,M,,0000*41
$GNGSA,A,3,08,27,16,07,09,04,21,31,02,,,,1.40,0.86,1.10*14
$GNGSA,A,3,85,75,65,86,76,66,,,,,,,1.40,0.86,1.10*14
$GPGSV,4,1,15,02,09,183,22,04,29,220,36,07,36,314,29,08,75,242,39*78
$GPGSV,4,2,15,09,32,257,38,16,43,063,23,18,02,031,,21,21,173,37*74
$GPGSV,4,3,15,26,17,088,19,27,67,041,43,30,07,315,,31,14,138,19*70
$GPGSV,4,4,15,40,11,255,40,41,32,233,39,50,47,169,36*4E
$GLGSV,3,1,09,65,14,260,38,66,15,310,30,74,35,089,19,75,57,006,44*68
$GLGSV,3,2,09,76,15,309,30,84,37,040,,85,63,133,44,86,19,183,40*6C
$GLGSV,3,3,09,,,,43*6B
$GNGLL,3620.15651,N,12043.84497,E,121412.00,A,D*74
$GNRMC,121413.00,A,3620.15641,N,12043.84479,E,1.131,223.72,151024,,,D*74
$GNVTG,223.72,T,,M,1.131,N,2.095,K,D*2C
$GNGGA,121413.00,3620.15641,N,12043.84479,E,2,12,0.86,27.6,M,6.0,M,,0000*4F
$GNGSA,A,3,08,27,16,07,09,04,21,31,26,02,,,1.40,0.86,1.10*10
$GNGSA,A,3,85,75,65,86,76,66,,,,,,,1.40,0.86,1.10*14
$GPGSV,4,1,15,02,09,183,29,04,29,220,36,07,36,314,38,08,75,242,42*7F
$GPGSV,4,2,15,09,32,257,34,16,43,063,23,18,02,031,,21,21,173,30*7F
$GPGSV,4,3,15,26,17,088,20,27,67,041,43,30,07,315,,31,14,138,23*73
$GPGSV,4,4,15,40,11,255,43,41,32,233,39,50,47,169,38*43
$GLGSV,3,1,09,65,14,260,42,66,15,310,26,74,35,089,16,75,57,006,41*68
$GLGSV,3,2,09,76,15,309,30,84,37,040,,85,63,133,44,86,19,183,37*6C
$GLGSV,3,3,09,,,,47*6F
$GNGLL,3620.15641,N,12043.84479,E,121413.00,A,D*74
$GNRMC,121414.00,A,3620.15619,N,12043.84454,E,1.190,219.26,151024,,,D*72
$GNVTG,219.26,T,,M,1.190,N,2.203,K,D*22
$GNGGA,121414.00,3620.15619,N,12043.84454,E,2,12,0.76,27.6,M,6.0,M,,0000*45
$GNGSA,A,3,08,27,16,07,09,04,21,31,26,02,,,1.31,0.76,1.06*1E
$GNGSA,A,3,85,75,65,86,76,66,,,,,,,1.31,0.76,1.06*1A
$GPGSV,4,1,15,02,09,183,22,04,29,220,36,07,36,314,36,08,75,242,40*78
$GPGSV,4,2,15,09,32,257,36,16,43,063,24,18,02,031,,21,21,173,39*73
$GPGSV,4,3,15,26,17,088,20,27,67,041,40,30,07,315,,31,14,138,22*71
$GPGSV,4,4,15,40,11,255,42,41,32,233,37,50,47,169,32*46
$GLGSV,3,1,09,65,14,260,31,66,15,310,26,74,35,089,13,75,57,006,40*68
$GLGSV,3,2,09,76,15,309,24,84,37,040,,85,63,133,46,86,19,183,32*6E
$GLGSV,3,3,09,,,,44*6C
$GNGLL,3620.15619,N,12043.84454,E,121414.00,A,D*71
$GNRMC,121415.00,A,3620.15603,N,12043.84428,E,0.947,229.57,151024,,,D*75
$GNVTG,229.57,T,,M,0.947,N,1.755,K,D*21
$GNGGA,121415.00,3620.15603,N,12043.84428,E,2,12,0.76,27.8,M,6.0,M,,0000*4A
$GNGSA,A,3,08,27,16,07,09,04,21,31,26,02,,,1.31,0.76,1.06*1E
$GNGSA,A,3,85,75,74,65,86,76,66,,,,,,1.31,0.76,1.06*19
$GPGSV,4,1,15,02,09,183,33,04,29,220,33,07,36,314,37,08,75,242,43*7F
$GPGSV,4,2,15,09,32,257,36,16,43,063,24,18,02,031,,21,21,173,34*7E
$GPGSV,4,3,15,26,17,088,19,27,67,041,44,30,07,315,,31,14,138,22*7F
$GPGSV,4,4,15,40,11,255,40,41,32,233,37,50,47,169,36*40
$GLGSV,3,1,09,65,14,260,44,66,15,310,31,74,35,089,13,75,57,006,43*6F
$GLGSV,3,2,09,76,15,309,25,84,37,040,,85,63,133,41,86,19,183,38*62
$GLGSV,3,3,09,,,,46*6E
$GNGLL,3620.15603,N,12043.84428,E,121415.00,A,D*70
$GNRMC,121416.00,A,3620.15584,N,12043.84402,E,1.129,227.48,151024,,,D*73
$GNVTG,227.48,T,,M,1.129,N,2.092,K,D*2F
$GNGGA,121416.00,3620.15584,N,12043.84402,E,2,12,0.76,27.9,M,6.0,M,,0000*4C
$GNGSA,A,3,08,27,16,07,09,04,21,31,26,02,,,1.31,0.76,1.06*1E
$GNGSA,A,3,85,75,74,65,86,76,66,,,,,,1.31,0.76,1.06*19
$GPGSV,4,1,15,02,09,183,37,04,29,220,34,07,36,314,31,08,75,242,38*76
$GPGSV,4,2,15,09,32,257,37,16,43,063,22,18,02,031,,21,21,173,40*7A
$GPGSV,4,3,15,26,17,088,18,27,67,041,40,30,07,315,,31,14,138,23*7B
$GPGSV,4,4,15,40,11,255,38,41,32,233,31,50,47,169,36*49
$GLGSV,3,1,09,65,14,260,38,66,15,310,23,74,35,089,17,75,57,006,42*62
$GLGSV,3,2,09,76,15,309,30,84,37,040,,85,63,133,45,86,19,183,42*6F
$GLGSV,3,3,09,,,,47*6F
$GNGLL,3620.15584,N,12043.84402,E,121416.00,A,D*77
$GNRMC,121417.00,A,3620.15574,N,12043.84385,E,0.918,234.38,151024,,,D*7B
$GNVTG,234.38,T,,M,0.918,N,1.700,K,D*2E
$GNGGA,121417.00,3620.15574,N,12043.84385,E,2,12,0.76,27.8,M,6.0,M,,0000*4B
$GNGSA,A,3,08,27,16,07,09,04,21,31,26,02,,,1.31,0.76,1.06*1E
$GNGSA,A,3,85,75,74,65,86,76,66,,,,,,1.31,0.76,1.06*19
$GPGSV,4,1,15,02,09,183,39,04,29,220,31,07,36,314,34,08,75,242,40*77
$GPGSV,4,2,15,09,32,257,42,16,43,063,22,18,02,031,,21,21,173,34*7B
$GPGSV,4,3,15,26,17,088,21,27,67,041,42,30,07,315,,31,14,138,22*72
$GPGSV,4,4,15,40,11,255,41,41,32,233,35,50,47,169,34*41
$GLGSV,3,1,09,65,14,260,38,66,15,310,31,74,35,089,19,75,57,006,43*6E
$GLGSV,3,2,09,76,15,309,40,84,37,040,18,85,64,131,44,86,19,183,35*65
$GLGSV,3,3,09,,,,45*6D
$GNGLL,3620.15574,N,12043.84385,E,121417.00,A,D*71
$GNRMC,121418.00,A,3620.15569,N,12043.84358,E,1.137,241.99,151024,,,D*75
$GNVTG,241.99,T,,M,1.137,N,2.106,K,D*20
$GNGGA,121418.00,3620.15569,N,12043.84358,E,2,12,0.70,27.7,M,6.0,M,,0000*41
$GNGSA,A,3,08,27,16,07,09,04,21,31,26,02,,,1.25,0.70,1.03*18
$GNGSA,A,3,85,75,74,65,86,76,66,,,,,,1.25,0.70,1.03*1F
$GPGSV,4,1,15,02,09,183,37,04,29,220,32,07,36,314,34,08,75,242,41*7B
$GPGSV,4,2,15,09,32,257,45,16,43,063,22,18,02,031,,21,21,173,30*78
$GPGSV,4,3,15,26,17,088,21,27,67,041,45,30,07,315,,31,14,138,22*75
$GPGSV,4,4,15,40,11,255,39,41,32,233,34,50,47,169,37*4C
$GLGSV,3,1,09,65,14,260,35,66,15,310,38,74,35,089,24,75,57,006,40*67
$GLGSV,3,2,09,76,15,309,33,84,37,040,17,85,64,131,48,86,20,183,38*65
$GLGSV,3,3,09,,,,47*6F
$GNGLL,3620.15569,N,12043.84358,E,121418.00,A,D*72
$GNRMC,121419.00,A,3620.15567,N,12043.84347,E,0.986,247.32,151024,,,D*70
$GNVTG,247.32,T,,M,0.986,N,1.826,K,D*2C
$GNGGA,121419.00,3620.15567,N,12043.84347,E,2,12,0.70,27.3,M,6.0,M,,0000*44
$GNGSA,A,3,08,27,16,07,09,04,21,31,26,02,,,1.25,0.70,1.03*18
$GNGSA,A,3,85,75,74,65,86,76,66,,,,,,1.25,0.70,1.03*1F
$GPGSV,4,1,15,02,09,183,37,04,29,220,35,07,36,314,40,08,75,242,40*7E
$GPGSV,4,2,15,09,32,257,42,16,43,063,22,18,02,031,,21,21,173,29*77
$GPGSV,4,3,15,26,17,088,22,27,67,041,45,30,07,315,35,31,14,138,24*76
$GPGSV,4,4,15,40,11,255,35,41,32,233,37,50,47,169,35*41
$GLGSV,3,1,09,65,14,260,35,66,15,310,38,74,35,089,22,75,57,006,46*67
$GLGSV,3,2,09,76,15,309,39,84,37,040,19,85,64,131,44,86,20,183,37*62
$GLGSV,3,3,09,,,,47*6F
$GNGLL,3620.15567,N,12043.84347,E,121419.00,A,D*73
$GNRMC,121420.00,A,3620.15570,N,12043.84323,E,0.781,253.93,151024,,,D*79
$GNVTG,253.93,T,,M,0.781,N,1.446,K,D*21
$GNGGA,121420.00,3620.15570,N,12043.84323,E,2,12,0.64,27.2,M,6.0,M,,0000*4E
$GNGSA,A,3,08,27,16,07,09,04,21,31,26,02,,,1.19,0.64,1.00*11
$GNGSA,A,3,85,75,84,74,65,86,76,66,,,,,1.19,0.64,1.00*1A
$GPGSV,4,1,15,02,09,183,33,04,29,220,32,07,36,314,40,08,75,242,39*73
$GPGSV,4,2,15,09,32,257,36,16,43,063,25,18,02,031,21,21,21,173,28*71
$GPGSV,4,3,15,26,17,088,22,27,67,041,42,30,07,315,35,31,14,138,30*74
$GPGSV,4,4,15,40,11,255,35,41,32,233,36,50,47,169,31*44
$GLGSV,3,1,09,65,14,260,39,66,15,310,42,74,35,089,24,75,57,006,45*63
$GLGSV,3,2,09,76,15,309,36,84,37,040,19,85,64,131,47,86,20,183,38*61
$GLGSV,3,3,09,,,,46*6E
$GNGLL,3620.15570,N,12043.84323,E,121420.00,A,D*7D
$GNRMC,121421.00,A,3620.15571,N,12043.84298,E,1.010,256.11,151024,,,D*79
$GNVTG,256.11,T,,M,1.010,N,1.871,K,D*28
$GNGGA,121421.00,3620.15571,N,12043.84298,E,2,12,0.64,27.0,M,6.0,M,,0000*4D
$GNGSA,A,3,08,27,16,07,09,04,21,31,26,02,,,1.19,0.64,1.00*11
$GNGSA,A,3,85,75,84,74,65,86,76,66,,,,,1.19,0.64,1.00*1A
$GPGSV,4,1,15,02,09,183,21,04,29,220,30,07,36,314,38,08,75,242,36*72
$GPGSV,4,2,15,09,32,257,33,16,43,063,25,18,02,031,,21,21,173,26*79
$GPGSV,4,3,15,26,17,088,22,27,67,041,42,30,07,315,31,31,14,138,33*73
$GPGSV,4,4,15,40,11,255,,41,32,233,38,50,47,169,29*45
$GLGSV,3,1,09,65,14,260,34,66,15,310,46,74,35,089,22,75,57,006,46*6F
$GLGSV,3,2,09,76,15,309,41,84,37,040,17,85,64,131,44,86,20,183,28*6D
$GLGSV,3,3,09,,,,41*69
$GNGLL,3620.15571,N,12043.84298,E,121421.00,A,D*7C
$GNRMC,121422.00,A,3620.15569,N,12043.84268,E,1.281,258.16,151024,,,D*7F
$GNVTG,258.16,T,,M,1.281,N,2.372,K,D*20
$GNGGA,121422.00,3620.15569,N,12043.84268,E,2,12,0.64,26.9,M,6.0,M,,0000*40
$GNGSA,A,3,08,27,16,07,09,04,21,31,26,02,,,1.19,0.64,1.00*11
$GNGSA,A,3,85,75,84,74,65,86,76,66,,,,,1.19,0.64,1.00*1A
$GPGSV,4,1,15,02,09,183,27,04,29,220,32,07,36,314,40,08,75,242,37*78
$GPGSV,4,2,15,09,32,257,34,16,43,063,27,18,02,031,,21,21,173,35*7E
$GPGSV,4,3,15,26,17,088,23,27,67,041,42,30,07,315,36,31,14,138,39*7F
$GPGSV,4,4,15,40,11,255,,41,32,233,39,50,47,169,33*4F
$GLGSV,3,1,09,65,14,260,34,66,15,310,44,74,35,089,23,75,57,006,45*6F
$GLGSV,3,2,09,76,15,309,44,84,37,040,17,85,64,131,45,86,20,183,36*66
$GLGSV,3,3,09,,,,42*6A
$GNGLL,3620.15569,N,12043.84268,E,121422.00,A,D*79
$GNRMC,121423.00,A,3620.15578,N,12043.84247,E,0.942,265.05,151024,,,D*7A
$GNVTG,265.05,T,,M,0.942,N,1.745,K,D*2A
$GNGGA,121423.00,3620.15578,N,12043.84247,E,2,12,0.64,26.6,M,6.0,M,,0000*43
$GNGSA,A,3,08,27,16,07,09,04,21,31,26,02,,,1.19,0.64,1.00*11
$GNGSA,A,3,85,75,84,74,65,86,76,66,,,,,1.19,0.64,1.00*1A
$GPGSV,4,1,15,02,09,183,28,04,28,219,26,07,36,314,40,08,75,242,40*79
$GPGSV,4,2,15,09,32,257,33,16,43,063,24,18,02,031,,21,21,173,31*7E
$GPGSV,4,3,15,26,17,088,23,27,67,041,42,30,07,315,36,31,14,138,39*7F
$GPGSV,4,4,15,40,11,255,,41,32,233,39,50,47,169,33*4F
$GLGSV,3,1,09,65,14,260,32,66,15,310,47,74,35,089,23,75,57,006,46*69
$GLGSV,3,2,09,76,15,309,44,84,37,040,17,85,64,131,45,86,20,183,37*67
$GLGSV,3,3,09,,,,42*6A
$GNGLL,3620.15578,N,12043.84247,E,121423.00,A,D*75
$GNRMC,121424.00,A,3620.15588,N,12043.84239,E,0.649,269.35,151024,,,D*70
$GNVTG,269.35,T,,M,0.649,N,1.203,K,D*26
$GNGGA,121424.00,3620.15588,N,12043.84239,E,2,12,0.64,26.1,M,6.0,M,,0000*45
$GNGSA,A,3,08,27,16,07,09,04,21,31,26,02,,,1.19,0.64,1.00*11
$GNGSA,A,3,85,75,84,74,65,86,76,66,,,,,1.19,0.64,1.00*1A
$GPGSV,4,1,15,02,09,183,28,04,28,219,33,07,36,314,39,08,75,242,39*7D
$GPGSV,4,2,15,09,32,257,33,16,43,063,26,18,02,031,,21,21,173,23*7F
$GPGSV,4,3,15,26,17,088,26,27,67,041,42,30,07,315,41,31,14,138,40*74
$GPGSV,4,4,15,40,11,255,,41,32,233,36,50,47,169,33*40
$GLGSV,3,1,09,65,14,260,41,66,15,310,48,74,35,089,27,75,57,006,45*65
$GLGSV,3,2,09,76,15,309,46,84,37,040,16,85,64,131,44,86,20,183,34*66
$GLGSV,3,3,09,,,,45*6D
$GNGLL,3620.15588,N,12043.84239,E,121424.00,A,D*74
$GNRMC,121425.00,A,3620.15590,N,12043.84223,E,1.972,262.33,151024,,,D*78
$GNVTG,262.33,T,,M,1.972,N,3.653,K,D*2E
$GNGGA,121425.00,3620.15590,N,12043.84223,E,2,12,0.64,25.0,M,6.0,M,,0000*44
$GNGSA,A,3,08,27,16,07,09,04,21,31,26,02,,,1.19,0.64,1.00*11
$GNGSA,A,3,85,75,84,74,65,86,76,66,,,,,1.19,0.64,1.00*1A
$GPGSV,4,1,15,02,09,183,29,04,28,219,31,07,36,314,35,08,75,242,39*72
$GPGSV,4,2,15,09,32,257,37,16,43,063,29,18,02,031,,21,21,173,36*70
$GPGSV,4,3,15,26,17,088,26,27,67,041,44,30,07,315,38,31,14,138,36*7D
$GPGSV,4,4,15,40,11,255,,41,32,233,39,50,47,169,31*4D
$GLGSV,3,1,09,65,14,260,33,66,15,310,40,74,35,089,30,75,57,006,46*6D
$GLGSV,3,2,09,76,15,309,43,84,37,040,19,85,64,131,47,86,20,183,39*62
$GLGSV,3,3,09,,,,47*6F
$GNGLL,3620.15590,N,12043.84223,E,121425.00,A,D*77
$GNRMC,121426.00,A,3620.15575,N,12043.84194,E,0.735,255.08,151024,,,D*7F
$GNVTG,255.08,T,,M,0.735,N,1.361,K,D*28
$GNGGA,121426.00,3620.15575,N,12043.84194,E,2,12,0.64,24.8,M,6.0,M,,0000*4A
$GNGSA,A,3,08,27,16,07,09,04,21,31,26,02,,,1.19,0.64,1.00*11
$GNGSA,A,3,85,75,84,74,65,86,76,66,,,,,1.19,0.64,1.00*1A
$GPGSV,4,1,15,02,09,183,29,04,28,219,32,07,37,314,38,08,75,242,38*7C
$GPGSV,4,2,15,09,32,257,37,16,43,063,35,18,02,031,,21,21,173,32*79
$GPGSV,4,3,15,26,17,088,24,27,67,041,44,30,07,315,39,31,14,138,37*7F
$GPGSV,4,4,15,40,11,255,,41,32,233,38,50,47,169,32*4F
$GLGSV,3,1,09,65,14,260,39,66,15,310,40,74,35,089,32,75,57,006,42*61
$GLGSV,3,2,09,76,15,309,39,84,37,040,22,85,64,131,50,86,20,183,35*6D
$GLGSV,3,3,09,,,,50*69
$GNGLL,3620.15575,N,12043.84194,E,121426.00,A,D*70
$GNRMC,121427.00,A,3620.15555,N,12043.84186,E,0.978,225.35,151024,,,D*71
$GNVTG,225.35,T,,M,0.978,N,1.811,K,D*2A
$GNGGA,121427.00,3620.15555,N,12043.84186,E,2,12,0.64,24.5,M,6.0,M,,0000*47
$GNGSA,A,3,08,27,16,07,09,04,21,31,26,02,,,1.19,0.64,1.00*11
$GNGSA,A,3,85,75,84,74,65,86,76,66,,,,,1.19,0.64,1.00*1A
$GPGSV,4,1,15,02,09,183,29,04,28,219,36,07,37,314,35,08,75,243,39*75
$GPGSV,4,2,15,09,32,257,38,16,43,063,38,18,02,031,,21,21,173,31*78
$GPGSV,4,3,15,26,17,088,27,27,67,041,44,30,07,315,40,31,14,138,27*73
$GPGSV,4,4,15,40,11,255,,41,32,233,37,50,47,169,34*46
$GLGSV,3,1,09,65,14,260,41,66,15,310,31,74,35,089,35,75,57,006,40*6D
$GLGSV,3,2,09,76,15,309,33,84,37,040,21,85,64,131,48,86,20,183,48*67
$GLGSV,3,3,09,,,,48*60
$GNGLL,3620.15555,N,12043.84186,E,121427.00,A,D*70
$GNRMC,121428.00,A,3620.15548,N,12043.84196,E,1.163,230.71,151024,,,D*74
$GNVTG,230.71,T,,M,1.163,N,2.153,K,D*21
$GNGGA,121428.00,3620.15548,N,12043.84196,E,2,12,0.64,23.8,M,6.0,M,,0000*4F
$GNGSA,A,3,08,27,16,07,09,04,21,31,26,02,,,1.19,0.64,1.00*11
$GNGSA,A,3,85,75,84,74,65,86,76,66,,,,,1.19,0.64,1.00*1A
$GPGSV,4,1,15,02,09,183,29,04,28,219,37,07,37,314,34,08,75,243,41*7A
$GPGSV,4,2,15,09,31,256,35,16,43,063,41,18,02,031,,21,21,173,39*71
$GPGSV,4,3,15,26,17,088,32,27,67,041,44,30,07,315,37,31,14,138,26*76
$GPGSV,4,4,15,40,11,255,,41,32,233,37,50,47,169,34*46
$GLGSV,3,1,09,65,14,260,40,66,15,310,41,74,35,089,40,75,57,006,40*69
$GLGSV,3,2,09,76,15,309,30,84,37,040,23,85,64,131,48,86,20,183,44*6A
$GLGSV,3,3,09,,,,49*61
$GNGLL,3620.15548,N,12043.84196,E,121428.00,A,D*72
$GNRMC,121429.00,A,3620.15523,N,12043.84177,E,1.205,222.32,151024,,,D*70
$GNVTG,222.32,T,,M,1.205,N,2.232,K,D*22
$GNGGA,121429.00,3620.15523,N,12043.84177,E,2,12,0.64,23.7,M,6.0,M,,0000*43
$GNGSA,A,3,08,27,16,07,09,04,21,31,26,02,,,1.19,0.64,1.00*11
$GNGSA,A,3,85,75,84,74,65,86,76,66,,,,,1.19,0.64,1.00*1A
$GPGSV,4,1,15,02,09,183,30,04,28,219,33,07,37,314,35,08,75,243,40*76
$GPGSV,4,2,15,09,31,256,38,16,43,063,41,18,02,031,,21,21,173,35*70
$GPGSV,4,3,15,26,17,088,31,27,67,041,45,30,07,315,32,31,14,138,27*70
$GPGSV,4,4,15,40,11,255,,41,32,233,36,50,47,169,35*46
$GLGSV,3,1,09,65,14,260,38,66,15,310,42,74,35,089,40,75,57,006,45*60
$GLGSV,3,2,09,76,15,309,40,84,37,040,24,85,64,131,49,86,20,183,47*68
$GLGSV,3,3,09,,,,50*69
$GNGLL,3620.15523,N,12043.84177,E,121429.00,A,D*71
$GNRMC,121430.00,A,3620.15500,N,12043.84154,E,1.265,225.17,151024,,,D*7E
$GNVTG,225.17,T,,M,1.265,N,2.344,K,D*24
$GNGGA,121430.00,3620.15500,N,12043.84154,E,2,12,0.64,23.5,M,6.0,M,,0000*49
$GNGSA,A,3,08,27,16,07,09,04,21,31,26,02,,,1.19,0.64,1.00*11
$GNGSA,A,3,85,75,84,74,65,86,76,66,,,,,1.19,0.64,1.00*1A
$GPGSV,4,1,15,02,09,183,31,04,28,219,29,07,37,314,29,08,75,243,39*7F
$GPGSV,4,2,15,09,31,256,37,16,43,063,39,18,02,031,,21,21,173,31*74
$GPGSV,4,3,15,26,17,088,23,27,67,041,46,30,07,315,35,31,14,138,39*78
$GPGSV,4,4,15,40,11,255,,41,32,233,32,50,47,169,35*42
$GLGSV,3,1,09,65,14,260,39,66,15,310,36,74,35,089,36,75,57,006,43*65
$GLGSV,3,2,09,76,15,309,34,84,37,040,25,85,64,131,48,86,20,183,42*6E
$GLGSV,3,3,09,,,,49*61
$GNGLL,3620.15500,N,12043.84154,E,121430.00,A,D*79
$GNRMC,121431.00,A,3620.15480,N,12043.84125,E,1.135,228.64,151024,,,D*7F
$GNVTG,228.64,T,,M,1.135,N,2.102,K,D*2B
$GNGGA,121431.00,3620.15480,N,12043.84125,E,2,12,0.64,23.5,M,6.0,M,,0000*47
$GNGSA,A,3,08,27,16,07,09,04,21,31,26,02,,,1.19,0.64,1.00*11
$GNGSA,A,3,85,75,84,74,65,86,76,66,,,,,1.19,0.64,1.00*1A
$GPGSV,4,1,15,02,09,183,29,04,28,219,35,07,37,314,35,08,75,243,39*76
$GPGSV,4,2,15,09,31,256,38,16,43,063,38,18,02,031,,21,21,173,31*7A
$GPGSV,4,3,15,26,17,088,24,27,67,041,45,30,07,315,34,31,14,138,41*72
$GPGSV,4,4,15,40,11,255,,41,32,233,33,50,47,169,34*42
$GLGSV,3,1,09,65,14,260,36,66,15,310,36,74,35,089,34,75,57,006,41*6A
$GLGSV,3,2,09,76,15,309,38,84,37,040,25,85,64,131,49,86,20,183,31*67
$GLGSV,3,3,09,,,,47*6F
$GNGLL,3620.15480,N,12043.84125,E,121431.00,A,D*77
$GNRMC,121432.00,A,3620.15452,N,12043.84100,E,1.132,228.00,151024,,,D*71
$GNVTG,228.00,T,,M,1.132,N,2.097,K,D*23
$GNGGA,121432.00,3620.15452,N,12043.84100,E,2,12,0.64,23.5,M,6.0,M,,0000*4C
$GNGSA,A,3,08,27,16,07,09,04,21,31,26,02,,,1.19,0.64,1.00*11
$GNGSA,A,3,85,75,84,74,65,86,76,66,,,,,1.19,0.64,1.00*1A
$GPGSV,4,1,15,02,09,183,29,04,28,219,36,07,37,314,31,08,75,243,41*7E
$GPGSV,4,2,15,09,31,256,38,16,43,063,38,18,02,031,,21,21,173,35*7E
$GPGSV,4,3,15,26,17,088,27,27,67,041,44,30,07,315,37,31,14,138,41*73
$GPGSV,4,4,15,40,11,255,,41,32,233,34,50,47,169,37*46
$GLGSV,3,1,09,65,14,260,39,66,15,310,39,74,35,089,37,75,57,006,41*69
$GLGSV,3,2,09,76,15,309,37,84,37,040,26,85,64,131,47,86,20,183,33*67
$GLGSV,3,3,09,,,,49*61
$GNGLL,3620.15452,N,12043.84100,E,121432.00,A,D*7C
$GNRMC,121433.00,A,3620.15435,N,12043.84070,E,1.041,235.18,151024,,,D*77
$GNVTG,235.18,T,,M,1.041,N,1.928,K,D*2D
$GNGGA,121433.00,3620.15435,N,12043.84070,E,2,12,0.64,23.5,M,6.0,M,,0000*4A
$GNGSA,A,3,08,27,16,07,09,04,21,31,26,02,,,1.19,0.64,1.00*11
$GNGSA,A,3,85,75,84,74,65,86,76,66,,,,,1.19,0.64,1.00*1A
$GPGSV,4,1,15,02,09,183,31,04,28,219,36,07,37,314,33,08,75,243,38*7B
$GPGSV,4,2,15,09,31,256,38,16,43,063,37,18,02,031,,21,21,173,35*71
$GPGSV,4,3,15,26,17,088,32,27,67,041,44,30,07,315,37,31,14,138,42*74
$GPGSV,4,4,15,40,11,255,,41,32,233,35,50,47,169,33*43
$GLGSV,3,1,09,65,14,260,36,66,15,310,39,74,35,089,37,75,57,006,42*65
$GLGSV,3,2,09,76,15,309,38,84,37,040,27,85,64,131,48,86,20,183,41*63
$GLGSV,3,3,09,,,,48*60
$GNGLL,3620.15435,N,12043.84070,E,121433.00,A,D*7A
$GNRMC,121434.00,A,3620.15427,N,12043.84041,E,1.005,246.06,151024,,,D*7A
$GNVTG,246.06,T,,M,1.005,N,1.862,K,D*29
$GNGGA,121434.00,3620.15427,N,12043.84041,E,2,12,0.64,23.5,M,6.0,M,,0000*4C
$GNGSA,A,3,08,27,16,07,09,04,21,31,26,02,,,1.19,0.64,1.00*11
$GNGSA,A,3,85,75,84,74,65,86,76,66,,,,,1.19,0.64,1.00*1A
$GPGSV,4,1,15,02,09,183,19,04,28,219,31,07,37,314,36,08,75,243,41*7D
$GPGSV,4,2,15,09,31,256,37,16,43,063,39,18,02,031,,21,21,173,31*74
$GPGSV,4,3,15,26,17,088,22,27,67,041,43,30,07,315,36,31,14,138,38*7E
$GPGSV,4,4,15,40,11,255,,41,32,233,35,50,47,169,31*41
$GLGSV,3,1,09,65,14,260,31,66,15,310,41,74,35,089,39,75,57,006,45*64
$GLGSV,3,2,09,76,15,309,40,84,37,040,35,85,64,131,47,86,20,183,40*61
$GLGSV,3,3,09,,,,47*6F
$GNGLL,3620.15427,N,12043.84041,E,121434.00,A,D*7C
$GNRMC,121435.00,A,3620.15420,N,12043.84019,E,0.933,240.30,151024,,,D*7F
$GNVTG,240.30,T,,M,0.933,N,1.728,K,D*26
$GNGGA,121435.00,3620.15420,N,12043.84019,E,2,12,0.64,23.3,M,6.0,M,,0000*41
$GNGSA,A,3,08,27,16,07,09,04,21,31,26,02,,,1.19,0.64,1.00*11
$GNGSA,A,3,85,75,84,74,65,86,76,66,,,,,1.19,0.64,1.00*1A
$GPGSV,4,1,15,02,09,183,23,04,28,219,30,07,37,314,36,08,75,243,41*75
$GPGSV,4,2,15,09,31,256,36,16,42,063,37,18,02,031,,21,21,173,36*7D
$GPGSV,4,3,15,26,17,088,23,27,67,041,44,30,07,315,32,31,14,138,33*77
$GPGSV,4,4,15,40,11,255,,41,32,233,38,50,47,169,31*4C
$GLGSV,3,1,09,65,14,260,34,66,15,310,45,74,35,089,35,75,57,006,45*69
$GLGSV,3,2,09,76,15,309,44,84,37,040,36,85,64,131,47,86,20,183,44*62
$GLGSV,3,3,09,,,,45*6D
$GNGLL,3620.15420,N,12043.84019,E,121435.00,A,D*77
$GNRMC,121436.00,A,3620.15404,N,12043.84007,E,0.862,230.02,151024,,,D*76
$GNVTG,230.02,T,,M,0.862,N,1.597,K,D*23
$GNGGA,121436.00,3620.15404,N,12043.84007,E,2,12,0.59,23.1,M,6.0,M,,0000*47
$GNGSA,A,3,08,27,16,07,09,04,21,31,26,02,,,1.10,0.59,0.92*1C
$GNGSA,A,3,85,75,84,74,65,86,76,66,,,,,1.10,0.59,0.92*17
$GPGSV,4,1,15,02,09,183,37,04,28,219,35,07,37,314,32,08,75,243,41*71
$GPGSV,4,2,15,09,31,256,37,16,42,063,38,18,02,031,,21,21,173,42*70
$GPGSV,4,3,15,26,17,088,24,27,67,041,44,30,07,315,31,31,14,138,27*76
$GPGSV,4,4,15,40,11,255,,41,32,233,38,50,47,169,36*4B
$GLGSV,3,1,09,65,14,260,39,66,15,310,37,74,35,089,36,75,57,006,43*64
$GLGSV,3,2,09,76,15,309,38,84,37,040,32,85,64,131,46,86,20,183,48*60
$GLGSV,3,3,09,,,,45*6D
$GNGLL,3620.15404,N,12043.84007,E,121436.00,A,D*7D
$GNRMC,121437.00,A,3620.15377,N,12043.84005,E,1.044,200.85,151024,,,D*77
$GNVTG,200.85,T,,M,1.044,N,1.934,K,D*27
$GNGGA,121437.00,3620.15377,N,12043.84005,E,2,12,0.64,22.9,M,6.0,M,,0000*40
$GNGSA,A,3,08,27,16,07,09,04,21,31,26,02,,,1.19,0.64,1.00*11
$GNGSA,A,3,85,75,84,74,65,86,76,66,,,,,1.19,0.64,1.00*1A
$GPGSV,4,1,15,02,09,183,32,04,28,219,36,07,37,314,37,08,75,243,41*72
$GPGSV,4,2,15,09,31,256,39,16,42,063,40,18,02,031,,21,21,173,41*72
$GPGSV,4,3,15,26,17,088,26,27,67,041,44,30,07,315,35,31,14,138,40*71
$GPGSV,4,4,15,40,11,255,,41,32,233,38,50,47,169,36*4B
$GLGSV,3,1,09,65,14,260,41,66,15,310,37,74,35,089,35,75,57,006,46*6D
$GLGSV,3,2,09,76,15,309,40,84,37,040,32,85,64,131,47,86,20,183,48*6E
$GLGSV,3,3,09,,,,48*60
$GNGLL,3620.15377,N,12043.84005,E,121437.00,A,D*7D
$GNRMC,121438.00,A,3620.15359,N,12043.83987,E,0.933,224.92,151024,,,D*78
$GNVTG,224.92,T,,M,0.933,N,1.728,K,D*2C
$GNGGA,121438.00,3620.15359,N,12043.83987,E,2,12,0.64,22.8,M,6.0,M,,0000*46
$GNGSA,A,3,08,27,16,07,09,04,21,31,26,02,,,1.19,0.64,1.00*11
$GNGSA,A,3,85,75,84,74,65,86,76,66,,,,,1.19,0.64,1.00*1A
$GPGSV,4,1,15,02,09,183,32,04,28,219,31,07,37,314,38,08,75,243,43*78
$GPGSV,4,2,15,09,31,256,32,16,42,063,40,18,02,031,,21,21,173,38*77
$GPGSV,4,3,15,26,17,088,26,27,67,041,44,30,07,315,35,31,14,138,37*71
$GPGSV,4,4,15,40,11,255,,41,32,233,39,50,47,169,39*45
$GLGSV,3,1,09,65,14,260,41,66,15,310,41,74,35,089,36,75,57,006,47*6E
$GLGSV,3,2,09,76,15,309,29,84,37,040,31,85,64,131,48,86,20,183,48*6D
$GLGSV,3,3,09,,,,48*60
$GNGLL,3620.15359,N,12043.83987,E,121438.00,A,D*7A
$GNRMC,121439.00,A,3620.15357,N,12043.83966,E,0.670,236.16,151024,,,D*7F
$GNVTG,236.16,T,,M,0.670,N,1.242,K,D*22
$GNGGA,121439.00,3620.15357,N,12043.83966,E,2,12,0.64,22.7,M,6.0,M,,0000*49
$GNGSA,A,3,08,27,16,07,09,04,21,31,26,02,,,1.19,0.64,1.00*11
$GNGSA,A,3,85,75,84,74,65,86,76,66,,,,,1.19,0.64,1.00*1A
$GPGSV,4,1,15,02,09,183,35,04,28,219,30,07,37,314,25,08,75,243,38*7E
$GPGSV,4,2,15,09,31,256,36,16,42,063,36,18,02,031,,21,21,173,42*7F
$GPGSV,4,3,15,26,17,088,33,27,67,041,44,30,07,315,38,31,14,138,30*7F
$GPGSV,4,4,15,40,11,255,,41,32,233,36,50,47,169,36*45
$GLGSV,3,1,09,65,14,260,36,66,15,310,36,74,35,089,41,75,57,006,45*6C
$GLGSV,3,2,09,76,15,309,29,84,37,040,32,85,64,131,42,86,20,183,45*69
$GLGSV,3,3,09,,,,44*6C
$GNGLL,3620.15357,N,12043.83966,E,121439.00,A,D*7A
$GNRMC,121440.00,A,3620.15355,N,12043.83953,E,0.084,,151024,,,D*66
$GNVTG,,T,,M,0.084,N,0.156,K,D*36
$GNGGA,121440.00,3620.15355,N,12043.83953,E,2,12,0.59,22.7,M,6.0,M,,0000*4D
$GNGSA,A,3,08,27,16,07,09,04,21,31,26,02,,,1.10,0.59,0.92*1C
$GNGSA,A,3,85,75,84,74,65,86,76,66,,,,,1.10,0.59,0.92*17
$GPGSV,4,1,15,02,09,183,36,04,28,219,29,07,37,314,28,08,75,243,40*77
$GPGSV,4,2,15,09,31,256,38,16,42,063,39,18,02,031,,21,21,173,41*7D
$GPGSV,4,3,15,26,17,088,34,27,67,041,44,30,07,315,36,31,14,138,30*76
$GPGSV,4,4,15,40,11,255,,41,32,233,36,50,47,169,36*45
$GLGSV,3,1,09,65,14,260,39,66,15,310,48,74,35,089,34,75,57,006,45*68
$GLGSV,3,2,09,76,15,309,40,84,37,040,32,85,64,131,45,86,20,183,47*63
$GLGSV,3,3,09,,,,45*6D
$GNGLL,3620.15355,N,12043.83953,E,121440.00,A,D*70
$GNRMC,121441.00,A,3620.15359,N,12043.83943,E,0.393,,151024,,,D*6F
$GNVTG,,T,,M,0.393,N,0.727,K,D*33
$GNGGA,121441.00,3620.15359,N,12043.83943,E,2,12,0.59,22.5,M,6.0,M,,0000*43
$GNGSA,A,3,08,27,16,07,09,04,21,31,26,02,,,1.10,0.59,0.92*1C
$GNGSA,A,3,85,75,84,74,65,86,76,66,,,,,1.10,0.59,0.92*17
$GPGSV,4,1,15,02,09,183,37,04,28,219,29,07,37,314,38,08,75,243,40*77
$GPGSV,4,2,15,09,31,256,34,16,42,063,39,18,02,031,,21,21,173,41*71
$GPGSV,4,3,15,26,17,088,25,27,67,041,43,30,07,315,37,31,14,138,29*78
$GPGSV,4,4,15,40,11,255,,41,32,233,41,50,47,169,35*46
$GLGSV,3,1,09,65,14,260,35,66,15,310,45,74,35,089,32,75,57,006,44*6E
$GLGSV,3,2,09,76,15,309,42,84,37,040,31,85,64,131,45,86,20,183,46*63
$GLGSV,3,3,09,,,,42*6A
$GNGLL,3620.15359,N,12043.83943,E,121441.00,A,D*7C
$GNRMC,121442.00,A,3620.15365,N,12043.83923,E,0.625,259.04,151024,,,D*79
$GNVTG,259.04,T,,M,0.625,N,1.158,K,D*20
$GNGGA,121442.00,3620.15365,N,12043.83923,E,2,12,0.59,22.5,M,6.0,M,,0000*49
$GNGSA,A,3,08,27,16,07,09,04,21,31,26,02,,,1.10,0.59,0.92*1C
$GNGSA,A,3,85,75,84,74,65,86,76,66,,,,,1.10,0.59,0.92*17
$GPGSV,4,1,15,02,09,183,30,04,28,219,27,07,37,314,38,08,75,243,38*71
$GPGSV,4,2,15,09,31,256,35,16,42,063,39,18,02,031,,21,21,173,32*74
$GPGSV,4,3,15,26,17,088,37,27,67,041,43,30,07,315,38,31,14,138,34*78
$GPGSV,4,4,15,40,11,255,,41,32,233,37,50,47,169,*41
$GLGSV,3,1,09,65,14,260,41,66,15,310,44,74,35,089,31,75,57,006,46*6D
$GLGSV,3,2,09,76,15,309,43,84,37,040,30,85,64,131,42,86,20,183,39*6C
$GLGSV,3,3,09,,,,43*6B
$GNGLL,3620.15365,N,12043.83923,E,121442.00,A,D*76
$GNRMC,121443.00,A,3620.15366,N,12043.83907,E,0.271,,151024,,,D*6C
$GNVTG,,T,,M,0.271,N,0.501,K,D*38
$GNGGA,121443.00,3620.15366,N,12043.83907,E,2,12,0.59,22.4,M,6.0,M,,0000*4C
$GNGSA,A,3,08,27,16,07,09,04,21,31,26,02,,,1.10,0.59,0.92*1C
$GNGSA,A,3,85,75,84,74,65,86,76,66,,,,,1.10,0.59,0.92*17
$GPGSV,4,1,15,02,09,183,19,04,28,219,28,07,37,314,40,08,75,243,38*7A
$GPGSV,4,2,15,09,31,256,34,16,42,063,39,18,02,031,,21,21,173,37*70
$GPGSV,4,3,15,26,17,088,32,27,67,041,42,30,07,315,41,31,14,138,32*74
$GPGSV,4,4,15,40,11,255,,41,32,233,34,50,47,169,*42
$GLGSV,3,1,09,65,14,260,39,66,15,310,46,74,35,089,17,75,57,006,49*6B
$GLGSV,3,2,09,76,15,309,44,84,37,040,31,85,64,131,47,86,20,183,37*61
$GLGSV,3,3,09,,,,44*6C
$GNGLL,3620.15366,N,12043.83907,E,121443.00,A,D*72
$GNRMC,121444.00,A,3620.15366,N,12043.83879,E,0.839,275.20,151024,,,D*79
$GNVTG,275.20,T,,M,0.839,N,1.555,K,D*22
$GNGGA,121444.00,3620.15366,N,12043.83879,E,2,12,0.59,22.5,M,6.0,M,,0000*42
$GNGSA,A,3,08,27,16,07,09,04,21,31,26,02,,,1.10,0.59,0.92*1C
$GNGSA,A,3,85,75,84,74,65,86,76,66,,,,,1.10,0.59,0.92*17
$GPGSV,4,1,15,02,09,183,32,04,28,219,27,07,37,314,41,08,75,243,38*7D
$GPGSV,4,2,15,09,31,256,40,16,42,063,38,18,02,031,,21,21,173,35*70
$GPGSV,4,3,15,26,17,088,33,27,67,041,42,30,07,315,38,31,14,138,33*7A
$GPGSV,4,4,15,40,11,255,,41,32,233,,50,47,169,*45
$GLGSV,3,1,09,65,14,260,41,66,15,310,39,74,35,089,31,75,57,006,49*68
$GLGSV,3,2,09,76,15,309,32,84,37,040,31,85,64,131,47,86,20,183,41*61
$GLGSV,3,3,09,,,,45*6D
$GNGLL,3620.15366,N,12043.83879,E,121444.00,A,D*7D
$GNRMC,121445.00,A,3620.15375,N,12043.83849,E,0.902,290.54,151024,,,D*78
$GNVTG,290.54,T,,M,0.902,N,1.670,K,D*27
$GNGGA,121445.00,3620.15375,N,12043.83849,E,2,12,0.59,22.7,M,6.0,M,,0000*40
$GNGSA,A,3,08,27,16,07,09,04,21,31,26,02,,,1.10,0.59,0.92*1C
$GNGSA,A,3,85,75,84,74,65,86,76,66,,,,,1.10,0.59,0.92*17
$GPGSV,4,1,15,02,09,183,26,04,28,219,37,07,37,314,41,08,75,243,37*76
$GPGSV,4,2,15,09,31,256,34,16,42,063,40,18,02,031,,21,21,173,41*7F
$GPGSV,4,3,15,26,17,088,31,27,67,041,40,30,07,315,37,31,14,138,32*74
$GPGSV,4,4,15,40,11,255,,41,32,233,,50,47,169,*45
$GLGSV,3,1,09,65,14,260,41,66,15,310,43,74,35,089,30,75,57,006,44*69
$GLGSV,3,2,09,76,15,309,30,84,37,040,31,85,64,131,43,86,20,183,49*6F
$GLGSV,3,3,09,,,,41*69
$GNGLL,3620.15375,N,12043.83849,E,121445.00,A,D*7D
$GNRMC,121446.00,A,3620.15384,N,12043.83821,E,0.981,287.17,151024,,,D*71
$GNVTG,287.17,T,,M,0.981,N,1.817,K,D*22
$GNGGA,121446.00,3620.15384,N,12043.83821,E,2,12,0.59,22.7,M,6.0,M,,0000*43
$GNGSA,A,3,08,27,16,07,09,04,21,31,26,02,,,1.10,0.59,0.92*1C
$GNGSA,A,3,85,75,84,74,65,86,76,66,,,,,1.10,0.59,0.92*17
$GPGSV,4,1,15,02,09,183,27,04,28,219,33,07,37,314,41,08,75,243,38*7C
$GPGSV,4,2,15,09,31,256,32,16,42,063,38,18,02,031,17,21,21,173,38*7E
$GPGSV,4,3,15,26,17,088,30,27,67,041,40,30,07,315,36,31,14,138,25*72
$GPGSV,4,4,15,40,11,255,,41,32,233,,50,47,169,*45
$GLGSV,3,1,09,65,14,260,36,66,15,310,30,74,35,089,35,75,57,006,43*6F
$GLGSV,3,2,09,76,15,309,34,84,37,040,18,85,64,131,38,86,20,183,50*64
$GLGSV,3,3,09,,,,41*69
$GNGLL,3620.15384,N,12043.83821,E,121446.00,A,D*7E
$GNRMC,121447.00,A,3620.15376,N,12043.83788,E,0.858,266.30,151024,,,D*7E
$GNVTG,266.30,T,,M,0.858,N,1.588,K,D*26
$GNGGA,121447.00,3620.15376,N,12043.83788,E,2,12,0.59,22.7,M,6.0,M,,0000*43
$GNGSA,A,3,08,27,16,07,09,04,21,31,26,02,,,1.10,0.59,0.92*1C
$GNGSA,A,3,85,75,84,74,65,86,76,66,,,,,1.10,0.59,0.92*17
$GPGSV,4,1,15,02,09,183,26,04,28,219,34,07,37,314,42,08,75,243,38*79
$GPGSV,4,2,15,09,31,256,24,16,42,063,41,18,02,031,,21,21,173,39*70
$GPGSV,4,3,15,26,17,088,30,27,67,041,40,30,07,315,38,31,14,138,29*70
$GPGSV,4,4,15,40,11,255,,41,32,233,,50,47,169,*45
$GLGSV,3,1,09,65,14,260,39,66,15,310,34,74,35,089,29,75,57,006,45*6F
$GLGSV,3,2,09,76,15,309,41,84,37,040,36,85,64,131,46,86,20,183,43*61
$GLGSV,3,3,09,,,,46*6E
$GNGLL,3620.15376,N,12043.83788,E,121447.00,A,D*7E
$GNRMC,121448.00,A,3620.15373,N,12043.83750,E,0.928,272.34,151024,,,D*76
$GNVTG,272.34,T,,M,0.928,N,1.719,K,D*2B
$GNGGA,121448.00,3620.15373,N,12043.83750,E,2,12,0.59,22.9,M,6.0,M,,0000*42
$GNGSA,A,3,08,27,16,07,09,04,21,31,26,02,,,1.10,0.59,0.92*1C
$GNGSA,A,3,85,75,84,74,65,86,76,66,,,,,1.10,0.59,0.92*17
$GPGSV,4,1,15,02,09,183,23,04,28,219,27,07,37,314,39,08,75,243,38*72
$GPGSV,4,2,15,09,31,256,33,16,42,063,38,18,02,031,,21,21,173,39*78
$GPGSV,4,3,15,26,17,088,31,27,67,041,40,30,07,315,37,31,14,138,38*7E
$GPGSV,4,4,15,40,11,255,,41,32,233,,50,47,169,*45
$GLGSV,3,1,09,65,14,260,31,66,15,310,42,74,35,089,28,75,57,006,48*6A
$GLGSV,3,2,09,76,15,309,47,84,37,040,29,85,64,131,45,86,20,183,37*69
$GLGSV,3,3,09,,,,45*6D
$GNGLL,3620.15373,N,12043.83750,E,121448.00,A,D*71
$GNRMC,121449.00,A,3620.15378,N,12043.83710,E,1.029,281.14,151024,,,D*7F
$GNVTG,281.14,T,,M,1.029,N,1.906,K,D*2C
$GNGGA,121449.00,3620.15378,N,12043.83710,E,2,12,0.59,23.1,M,6.0,M,,0000*45
$GNGSA,A,3,08,27,16,07,09,04,21,31,26,02,,,1.10,0.59,0.92*1C
$GNGSA,A,3,85,75,84,74,65,86,76,66,,,,,1.10,0.59,0.92*17
$GPGSV,4,1,15,02,09,183,32,04,28,219,33,07,37,314,41,08,75,243,38*78
$GPGSV,4,2,15,09,31,256,28,16,42,063,39,18,02,031,,21,21,173,40*7D
$GPGSV,4,3,15,26,17,088,30,27,67,041,39,30,07,315,38,31,14,138,30*76
$GPGSV,4,4,15,40,11,255,,41,32,233,,50,47,169,*45
$GLGSV,3,1,09,65,14,260,39,66,15,310,37,74,35,089,29,75,57,006,45*6C
$GLGSV,3,2,09,76,15,309,42,84,37,040,31,85,64,131,45,86,20,183,43*66
$GLGSV,3,3,09,,,,44*6C
$GNGLL,3620.15378,N,12043.83710,E,121449.00,A,D*7F
$GNRMC,121450.00,A,3620.15384,N,12043.83671,E,1.011,286.24,151024,,,D*7D
$GNVTG,286.24,T,,M,1.011,N,1.872,K,D*21
$GNGGA,121450.00,3620.15384,N,12043.83671,E,2,12,0.59,23.3,M,6.0,M,,0000*4A
$GNGSA,A,3,08,27,16,07,09,04,21,31,26,02,,,1.10,0.59,0.92*1C
$GNGSA,A,3,85,75,84,74,65,86,76,66,,,,,1.10,0.59,0.92*17
$GPGSV,4,1,15,02,09,183,31,04,28,219,26,07,37,314,41,08,75,243,40*70
$GPGSV,4,2,15,09,31,256,32,16,42,063,39,18,02,031,,21,21,173,40*76
$GPGSV,4,3,15,26,17,088,30,27,67,041,41,30,07,315,38,31,14,138,30*79
$GPGSV,4,4,15,40,11,255,,41,32,233,,50,47,169,*45
$GLGSV,3,1,09,65,14,260,39,66,15,310,38,74,35,089,38,75,57,006,41*67
$GLGSV,3,2,09,76,15,309,40,84,37,040,30,85,64,131,40,86,20,183,49*6A
$GLGSV,3,3,09,,,,36*69
$GNGLL,3620.15384,N,12043.83671,E,121450.00,A,D*72
$GNRMC,121451.00,A,3620.15394,N,12043.83640,E,0.899,291.44,151024,,,D*76
$GNVTG,291.44,T,,M,0.899,N,1.666,K,D*23
$GNGGA,121451.00,3620.15394,N,12043.83640,E,2,12,0.59,23.4,M,6.0,M,,0000*4F
$GNGSA,A,3,08,27,16,07,09,04,21,31,26,02,,,1.10,0.59,0.92*1C
$GNGSA,A,3,85,75,84,74,65,86,76,66,,,,,1.10,0.59,0.92*17
$GPGSV,4,1,15,02,09,183,31,04,28,219,28,07,37,314,42,08,75,243,41*7C
$GPGSV,4,2,15,09,31,256,25,16,42,063,35,18,02,031,,21,21,173,38*73
$GPGSV,4,3,15,26,17,088,30,27,67,041,41,30,07,315,35,31,14,138,36*72
$GPGSV,4,4,15,40,11,255,,41,32,233,,50,47,169,*45
$GLGSV,3,1,09,65,14,260,36,66,15,310,33,74,35,089,38,75,57,006,42*60
$GLGSV,3,2,09,76,15,309,39,84,37,040,29,85,64,131,37,86,20,183,48*6D
$GLGSV,3,3,09,,,,44*6C
$GNGLL,3620.15394,N,12043.83640,E,121451.00,A,D*70
$GNRMC,121452.00,A,3620.15411,N,12043.83616,E,1.192,305.44,151024,,,D*73
$GNVTG,305.44,T,,M,1.192,N,2.207,K,D*2C
$GNGGA,121452.00,3620.15411,N,12043.83616,E,2,12,0.64,23.4,M,6.0,M,,0000*4B
$GNGSA,A,3,08,27,16,07,09,04,21,31,26,02,,,1.19,0.64,1.00*11
$GNGSA,A,3,85,75,84,74,65,86,76,66,,,,,1.19,0.64,1.00*1A
$GPGSV,4,1,15,02,09,183,37,04,28,219,29,07,37,314,34,08,75,243,39*75
$GPGSV,4,2,15,09,31,256,26,16,42,063,38,18,02,031,,21,21,173,38*7D
$GPGSV,4,3,15,26,17,088,39,27,67,041,36,30,07,315,34,31,14,138,31*7D
$GPGSV,4,4,15,40,11,255,,41,32,233,,50,47,169,*45
$GLGSV,3,1,09,65,14,260,35,66,15,310,36,74,35,089,37,75,57,006,44*6F
$GLGSV,3,2,09,76,15,309,36,84,37,040,30,85,64,131,43,86,20,183,46*67
$GLGSV,3,3,09,,,,45*6D
$GNGLL,3620.15411,N,12043.83616,E,121452.00,A,D*7A
$GNRMC,121453.00,A,3620.15426,N,12043.83585,E,1.058,311.77,151024,,,D*7D
$GNVTG,311.77,T,,M,1.058,N,1.960,K,D*27
$GNGGA,121453.00,3620.15426,N,12043.83585,E,2,12,0.59,23.7,M,6.0,M,,0000*4A
$GNGSA,A,3,08,27,16,07,09,04,21,31,26,02,,,1.10,0.59,0.92*1C
$GNGSA,A,3,85,75,84,74,65,86,76,66,,,,,1.10,0.59,0.92*17
$GPGSV,4,1,15,02,09,183,33,04,28,219,34,07,37,314,39,08,75,243,39*70
$GPGSV,4,2,15,09,31,256,32,16,42,063,38,18,02,031,,21,21,173,38*78
$GPGSV,4,3,15,26,17,088,37,27,67,041,36,30,07,315,29,31,14,138,36*78
$GPGSV,4,4,15,40,11,255,,41,32,233,,50,47,169,*45
$GLGSV,3,1,09,65,14,260,35,66,15,310,39,74,35,089,37,75,57,006,42*66
$GLGSV,3,2,09,76,15,309,39,84,37,040,28,85,64,131,39,86,20,183,45*6F
$GLGSV,3,3,09,,,,42*6A
$GNGLL,3620.15426,N,12043.83585,E,121453.00,A,D*76
$GNRMC,121454.00,A,3620.15445,N,12043.83545,E,1.136,316.45,151024,,,D*7C
$GNVTG,316.45,T,,M,1.136,N,2.103,K,D*26
$GNGGA,121454.00,3620.15445,N,12043.83545,E,2,12,0.59,24.0,M,6.0,M,,0000*44
$GNGSA,A,3,08,27,16,07,09,04,21,31,26,02,,,1.10,0.59,0.92*1C
$GNGSA,A,3,85,75,84,74,65,86,76,66,,,,,1.10,0.59,0.92*17
$GPGSV,4,1,15,02,09,183,38,04,28,219,33,07,37,314,39,08,75,243,40*72
$GPGSV,4,2,15,09,31,256,28,16,42,063,34,18,02,031,,21,21,173,38*7F
$GPGSV,4,3,15,26,17,088,37,27,67,041,36,30,07,315,28,31,14,138,36*79
$GPGSV,4,4,15,40,11,255,,41,32,233,,50,47,169,*45
$GLGSV,3,1,09,65,14,260,39,66,15,310,40,74,35,089,40,75,57,006,42*64
$GLGSV,3,2,09,76,15,309,42,84,37,040,30,85,64,131,41,86,20,183,44*64
$GLGSV,3,3,09,,,,45*6D
$GNGLL,3620.15445,N,12043.83545,E,121454.00,A,D*78
$GNRMC,121455.00,A,3620.15470,N,12043.83521,E,1.021,321.26,151024,,,D*7F
$GNVTG,321.26,T,,M,1.021,N,1.891,K,D*21
$GNGGA,121455.00,3620.15470,N,12043.83521,E,2,12,0.59,24.0,M,6.0,M,,0000*41
$GNGSA,A,3,08,27,16,07,09,04,21,31,26,02,,,1.10,0.59,0.92*1C
$GNGSA,A,3,85,75,84,74,65,86,76,66,,,,,1.10,0.59,0.92*17
$GPGSV,4,1,15,02,09,183,35,04,28,219,25,07,37,314,36,08,75,243,41*76
$GPGSV,4,2,15,09,31,256,28,16,42,063,34,18,02,031,,21,21,173,37*70
$GPGSV,4,3,15,26,17,088,32,27,67,041,37,30,07,315,34,31,14,138,30*76
$GPGSV,4,4,15,40,11,255,,41,32,233,,50,47,169,*45
$GLGSV,3,1,09,65,14,260,39,66,15,310,33,74,35,089,39,75,57,006,43*6F
$GLGSV,3,2,09,76,15,309,34,84,37,040,32,85,64,131,41,86,20,183,44*67
$GLGSV,3,3,09,,,,45*6D
$GNGLL,3620.15470,N,12043.83521,E,121455.00,A,D*7D
$GNRMC,121456.00,A,3620.15488,N,12043.83500,E,0.853,322.54,151024,,,D*72
$GNVTG,322.54,T,,M,0.853,N,1.580,K,D*26
$GNGGA,121456.00,3620.15488,N,12043.83500,E,2,12,0.59,24.1,M,6.0,M,,0000*47
$GNGSA,A,3,08,27,16,07,09,04,21,31,26,02,,,1.10,0.59,0.92*1C
$GNGSA,A,3,85,75,84,74,65,86,76,66,,,,,1.10,0.59,0.92*17
$GPGSV,4,1,15,02,09,183,38,04,28,219,33,07,37,314,38,08,75,243,41*72
$GPGSV,4,2,15,09,31,256,27,16,42,063,40,18,02,031,,21,21,173,34*7F
$GPGSV,4,3,15,26,17,088,24,27,67,041,37,30,07,315,35,31,14,138,31*71
$GPGSV,4,4,15,40,11,255,,41,32,233,,50,47,169,*45
$GLGSV,3,1,09,65,14,260,41,66,15,310,33,74,35,089,39,75,57,006,44*67
$GLGSV,3,2,09,76,15,309,39,84,37,040,32,85,64,131,43,86,20,183,47*6B
$GLGSV,3,3,09,,,,43*6B
$GNGLL,3620.15488,N,12043.83500,E,121456.00,A,D*7A
$GNRMC,121457.00,A,3620.15512,N,12043.83483,E,1.134,329.90,151024,,,D*71
$GNVTG,329.90,T,,M,1.134,N,2.099,K,D*22
$GNGGA,121457.00,3620.15512,N,12043.83483,E,2,12,0.59,24.1,M,6.0,M,,0000*4E
$GNGSA,A,3,08,27,16,07,09,04,21,31,26,02,,,1.10,0.59,0.92*1C
$GNGSA,A,3,85,75,84,74,65,86,76,66,,,,,1.10,0.59,0.92*17
$GPGSV,4,1,15,02,09,183,38,04,28,219,25,07,37,314,39,08,75,243,41*74
$GPGSV,4,2,15,09,31,256,26,16,42,063,38,18,02,031,,21,21,173,37*72
$GPGSV,4,3,15,26,17,088,25,27,67,041,40,30,07,315,30,31,14,138,35*71
$GPGSV,4,4,15,40,11,255,,41,32,233,,50,47,169,*45
$GLGSV,3,1,09,65,14,260,41,66,15,310,40,74,35,089,39,75,57,006,45*62
$GLGSV,3,2,09,76,15,309,37,84,37,040,32,85,64,131,39,86,20,183,43*6C
$GLGSV,3,3,09,,,,45*6D
$GNGLL,3620.15512,N,12043.83483,E,121457.00,A,D*73
$GNRMC,121458.00,A,3620.15536,N,12043.83467,E,1.148,328.39,151024,,,D*7B
$GNVTG,328.39,T,,M,1.148,N,2.127,K,D*2F
$GNGGA,121458.00,3620.15536,N,12043.83467,E,2,12,0.59,24.1,M,6.0,M,,0000*4D
$GNGSA,A,3,08,27,16,07,09,04,21,31,26,02,,,1.10,0.59,0.92*1C
$GNGSA,A,3,85,75,84,74,65,86,76,66,,,,,1.10,0.59,0.92*17
$GPGSV,4,1,15,02,09,183,36,04,28,219,26,07,37,314,41,08,75,243,40*77
$GPGSV,4,2,15,09,31,256,26,16,42,063,39,18,02,031,,21,21,173,35*71
$GPGSV,4,3,15,26,17,088,28,27,67,041,40,30,07,315,31,31,14,138,38*70
$GPGSV,4,4,15,40,11,255,,41,32,233,,50,47,169,*45
$GLGSV,3,1,09,65,14,260,39,66,15,310,42,74,35,089,41,75,57,006,45*60
$GLGSV,3,2,09,76,15,309,44,84,37,040,31,85,64,131,37,86,20,183,44*62
$GLGSV,3,3,09,,,,44*6C
$GNGLL,3620.15536,N,12043.83467,E,121458.00,A,D*70
$GNRMC,121459.00,A,3620.15559,N,12043.83447,E,1.138,328.68,151024,,,D*72
$GNVTG,328.68,T,,M,1.138,N,2.108,K,D*21
$GNGGA,121459.00,3620.15559,N,12043.83447,E,2,12,0.59,24.1,M,6.0,M,,0000*47
$GNGSA,A,3,08,27,16,07,09,04,21,31,26,02,,,1.10,0.59,0.92*1C
$GNGSA,A,3,85,75,84,74,65,86,76,66,,,,,1.10,0.59,0.92*17
$GPGSV,4,1,15,02,09,183,36,04,28,219,28,07,37,314,38,08,75,243,39*79
$GPGSV,4,2,15,09,31,256,27,16,42,063,39,18,02,031,,21,21,173,38*7D
$GPGSV,4,3,15,26,17,088,29,27,67,041,34,30,07,315,31,31,14,138,38*72
$GPGSV,4,4,15,40,11,255,,41,32,233,,50,47,169,*45
$GLGSV,3,1,09,65,14,260,36,66,15,310,40,74,35,089,36,75,57,006,44*6C
$GLGSV,3,2,09,76,15,309,41,84,37,040,31,85,64,131,37,86,20,183,43*60
$GLGSV,3,3,09,,,,45*6D
$GNGLL,3620.15559,N,12043.83447,E,121459.00,A,D*7A
$GNRMC,121500.00,A,3620.15582,N,12043.83427,E,1.040,328.35,151024,,,D*79
$GNVTG,328.35,T,,M,1.040,N,1.927,K,D*21
$GNGGA,121500.00,3620.15582,N,12043.83427,E,2,12,0.64,24.1,M,6.0,M,,0000*44
$GNGSA,A,3,08,27,16,07,09,04,21,31,26,02,,,1.19,0.64,1.00*11
$GNGSA,A,3,85,75,84,74,65,86,76,66,,,,,1.19,0.64,1.00*1A
$GPGSV,4,1,15,02,09,183,39,04,28,219,33,07,37,314,38,08,75,243,40*72
$GPGSV,4,2,15,09,31,256,28,16,42,063,39,18,02,031,,21,21,173,39*73
$GPGSV,4,3,15,26,17,088,29,27,67,041,40,30,07,315,31,31,14,138,39*70
$GPGSV,4,4,15,40,11,255,,41,32,233,,50,47,169,*45
$GLGSV,3,1,09,65,14,260,43,66,15,310,34,74,35,089,35,75,57,006,44*6E
$GLGSV,3,2,09,76,15,309,36,84,37,040,32,85,64,131,40,86,20,183,41*61
$GLGSV,3,3,09,,,,46*6E
$GNGLL,3620.15582,N,12043.83427,E,121500.00,A,D*77
$GNRMC,121501.00,A,3620.15602,N,12043.83400,E,1.139,322.45,151024,,,D*74
$GNVTG,322.45,T,,M,1.139,N,2.109,K,D*24
$GNGGA,121501.00,3620.15602,N,12043.83400,E,2,12,0.64,24.1,M,6.0,M,,0000*4B
$GNGSA,A,3,08,27,16,07,09,04,21,31,26,02,,,1.19,0.64,1.00*11
$GNGSA,A,3,85,75,84,74,65,86,76,66,,,,,1.19,0.64,1.00*1A
$GPGSV,4,1,15,02,09,183,37,04,28,219,31,07,37,314,35,08,75,243,38*7C
$GPGSV,4,2,15,09,31,256,27,16,42,063,39,18,02,031,,21,21,173,37*72
$GPGSV,4,3,15,26,17,088,28,27,67,041,40,30,07,315,30,31,14,138,36*7F
$GPGSV,4,4,15,40,11,255,,41,32,233,,50,47,169,*45
$GLGSV,3,1,09,65,14,260,41,66,15,310,31,74,35,089,34,75,57,006,44*68
$GLGSV,3,2,09,76,15,309,31,84,37,040,31,85,64,131,40,86,20,183,45*61
$GLGSV,3,3,09,,,,44*6C
$GNGLL,3620.15602,N,12043.83400,E,121501.00,A,D*78
$GNRMC,121502.00,A,3620.15624,N,12043.83375,E,1.203,323.59,151024,,,D*70
$GNVTG,323.59,T,,M,1.203,N,2.229,K,D*23
$GNGGA,121502.00,3620.15624,N,12043.83375,E,2,12,0.64,24.2,M,6.0,M,,0000*4A
$GNGSA,A,3,08,27,16,07,09,04,21,31,26,02,,,1.19,0.64,1.00*11
$GNGSA,A,3,85,75,84,74,65,86,76,66,,,,,1.19,0.64,1.00*1A
$GPGSV,4,1,15,02,09,183,38,04,28,219,22,07,37,314,37,08,75,243,41*7D
$GPGSV,4,2,15,09,31,256,32,16,42,063,39,18,02,031,,21,21,173,37*76
$GPGSV,4,3,15,26,17,088,27,27,67,041,40,30,07,315,34,31,14,138,38*7A
$GPGSV,4,4,15,40,11,255,,41,32,233,,50,47,169,*45
$GLGSV,3,1,09,65,14,260,39,66,15,310,32,74,35,089,32,75,57,006,42*64
$GLGSV,3,2,09,76,15,309,31,84,37,040,27,85,64,131,40,86,20,183,44*67
$GLGSV,3,3,09,,,,45*6D
$GNGLL,3620.15624,N,12043.83375,E,121502.00,A,D*7A
$GNRMC,121503.00,A,3620.15649,N,12043.83346,E,1.295,320.80,151024,,,D*72
$GNVTG,320.80,T,,M,1.295,N,2.398,K,D*20
$GNGGA,121503.00,3620.15649,N,12043.83346,E,2,12,0.64,24.1,M,6.0,M,,0000*43
$GNGSA,A,3,08,27,16,07,09,04,21,31,26,02,,,1.19,0.64,1.00*11
$GNGSA,A,3,85,75,84,74,65,86,76,66,,,,,1.19,0.64,1.00*1A
$GPGSV,4,1,15,02,09,183,35,04,28,219,32,07,37,314,39,08,75,243,38*71
$GPGSV,4,2,15,09,31,256,33,16,42,063,38,18,02,031,,21,21,173,39*78
$GPGSV,4,3,15,26,17,088,28,27,67,041,39,30,07,315,28,31,14,138,38*76
$GPGSV,4,4,15,40,11,255,,41,32,233,,50,47,169,*45
$GLGSV,3,1,09,65,14,260,36,66,15,310,41,74,35,089,31,75,57,006,43*6D
$GLGSV,3,2,09,76,15,309,39,84,37,040,28,85,64,131,39,86,20,183,40*6A
$GLGSV,3,3,09,,,,45*6D
$GNGLL,3620.15649,N,12043.83346,E,121503.00,A,D*70
$GNRMC,121504.00,A,3620.15672,N,12043.83319,E,1.079,320.89,151024,,,D*7E
$GNVTG,320.89,T,,M,1.079,N,1.999,K,D*21
$GNGGA,121504.00,3620.15672,N,12043.83319,E,2,12,0.64,24.1,M,6.0,M,,0000*46
$GNGSA,A,3,08,27,16,07,09,04,21,31,26,02,,,1.19,0.64,1.00*11
$GNGSA,A,3,85,75,84,74,65,86,76,66,,,,,1.19,0.64,1.00*1A
$GPGSV,4,1,15,02,09,183,34,04,28,219,30,07,37,314,39,08,75,243,40*7D
$GPGSV,4,2,15,09,31,256,28,16,42,063,40,18,02,031,,21,21,173,38*7C
$GPGSV,4,3,15,26,17,088,25,27,67,041,40,30,07,315,29,31,14,138,41*7A
$GPGSV,4,4,15,40,11,255,,41,32,233,,50,47,169,*45
$GLGSV,3,1,09,65,14,260,39,66,15,310,41,74,35,089,30,75,57,006,43*63
$GLGSV,3,2,09,76,15,309,41,84,37,040,28,85,64,131,38,86,20,183,43*67
$GLGSV,3,3,09,,,,45*6D
$GNGLL,3620.15672,N,12043.83319,E,121504.00,A,D*75
$GNRMC,121505.00,A,3620.15696,N,12043.83290,E,1.262,321.24,151024,,,D*7B
$GNVTG,321.24,T,,M,1.262,N,2.337,K,D*22
$GNGGA,121505.00,3620.15696,N,12043.83290,E,2,12,0.64,24.1,M,6.0,M,,0000*4D
$GNGSA,A,3,08,27,16,07,09,04,21,31,26,02,,,1.19,0.64,1.00*11
$GNGSA,A,3,85,75,84,74,65,86,76,66,,,,,1.19,0.64,1.00*1A
$GPGSV,4,1,15,02,09,183,35,04,28,219,29,07,37,314,39,08,75,243,38*7B
$GPGSV,4,2,15,09,31,256,27,16,42,063,37,18,02,031,,21,21,173,36*7D
$GPGSV,4,3,15,26,17,088,25,27,67,041,41,30,07,315,29,31,14,138,40*7A
$GPGSV,4,4,15,40,11,255,,41,32,233,,50,47,169,*45
$GLGSV,3,1,09,65,14,260,37,66,15,310,36,74,35,089,35,75,57,006,41*6A
$GLGSV,3,2,09,76,15,309,37,84,37,040,28,85,64,131,38,86,20,183,43*66
$GLGSV,3,3,09,,,,45*6D
$GNGLL,3620.15696,N,12043.83290,E,121505.00,A,D*7E
$GNRMC,121506.00,A,3620.15722,N,12043.83264,E,1.330,324.30,151024,,,D*7B
$GNVTG,324.30,T,,M,1.330,N,2.463,K,D*22
$GNGGA,121506.00,3620.15722,N,12043.83264,E,2,12,0.64,24.1,M,6.0,M,,0000*4B
$GNGSA,A,3,08,27,16,07,09,04,21,31,26,02,,,1.19,0.64,1.00*11
$GNGSA,A,3,85,75,84,74,65,86,76,66,,,,,1.19,0.64,1.00*1A
$GPGSV,4,1,15,02,09,183,35,04,28,219,35,07,37,314,39,08,75,243,40*79
$GPGSV,4,2,15,09,31,256,33,16,42,063,37,18,02,031,,21,21,173,39*77
$GPGSV,4,3,15,26,17,088,25,27,67,041,39,30,07,315,27,31,14,138,38*74
$GPGSV,4,4,15,40,11,255,,41,32,233,,50,47,169,*45
$GLGSV,3,1,09,65,14,260,39,66,15,310,41,74,35,089,34,75,57,006,41*65
$GLGSV,3,2,09,76,15,309,38,84,37,040,29,85,64,131,40,86,20,183,42*66
$GLGSV,3,3,09,,,,46*6E
$GNGLL,3620.15722,N,12043.83264,E,121506.00,A,D*78
$GNRMC,121507.00,A,3620.15745,N,12043.83236,E,1.138,323.30,151024,,,D*71
$GNVTG,323.30,T,,M,1.138,N,2.108,K,D*27
$GNGGA,121507.00,3620.15745,N,12043.83236,E,2,12,0.64,24.2,M,6.0,M,,0000*4F
$GNGSA,A,3,08,27,16,07,09,04,21,31,26,02,,,1.19,0.64,1.00*11
$GNGSA,A,3,85,75,84,74,65,86,76,66,,,,,1.19,0.64,1.00*1A
$GPGSV,4,1,15,02,09,183,38,04,28,219,33,07,37,314,39,08,75,243,39*7C
